Card init. failed!
$GPGGA,230308.289,,,,,0,3,,,M,,M,,*42
$GPRMC,230308.289,V,,,,,0.26,327.33,220914,,,N*4A
$PMTK001,314,3*36
$PMTK001,220,3*30
$GPGGA,230308.489,,,,,0,3,,,M,,M,,*44
$GPRMC,230308.489,V,,,,,0.50,327.33,220914,,,N*4D
$GPGGA,230308.689,,,,,0,3,,,M,,M,,*46
$GPRMC,230308.689,V,,,,,0.41,327.33,220914,,,N*4F
$GPGGA,230308.889,,,,,0,3,,,M,,M,,*48
$GPRMC,230308.889,V,,,,,0.58,327.33,220914,,,N*49
$GPGGA,230309.089,,,,,0,3,,,M,,M,,*41
$GPRMC,230309.089,V,,,,,0.60,333.49,220914,,,N*43
$GPGGA,230309.289,,,,,0,3,,,M,,M,,*43
$GPRMC,230309.289,V,,,,,0.44,333.49,220914,,,N*47
$GPGGA,230309.489,,,,,0,3,,,M,,M,,*45
$GPRMC,230309.489,V,,,,,0.21,333.49,220914,,,N*42
$GPGGA,230309.689,,,,,0,3,,,M,,M,,*47
$GPRMC,230309.689,V,,,,,0.23,333.49,220914,,,N*42
$GPGGA,230309.889,,,,,0,3,,,M,,M,,*49
$GPRMC,230309.889,V,,,,,0.19,333.49,220914,,,N*45
$GPGGA,230310.089,,,,,0,3,,,M,,M,,*49
$GPRMC,230310.089,V,,,,,0.35,333.49,220914,,,N*4B
$GPGGA,230310.289,,,,,0,3,,,M,,M,,*4B
$GPRMC,230310.289,V,,,,,0.23,333.49,220914,,,N*4E
$GPGGA,230310.489,,,,,0,3,,,M,,M,,*4D
$GPRMC,230310.489,V,,,,,0.28,333.49,220914,,,N*43
$GPGGA,230310.689,,,,,0,3,,,M,,M,,*4F
$GPRMC,230310.689,V,,,,,0.17,333.49,220914,,,N*4D
$GPGGA,230310.889,,,,,0,3,,,M,,M,,*41
$GPRMC,230310.889,V,,,,,0.36,333.49,220914,,,N*40
$GPGGA,230311.089,,,,,0,3,,,M,,M,,*48
$GPRMC,230311.089,V,,,,,0.24,333.49,220914,,,N*4A
$GPGGA,230311.289,,,,,0,3,,,M,,M,,*4A
$GPRMC,230311.289,V,,,,,0.07,333.49,220914,,,N*49
$GPGGA,230311.489,,,,,0,3,,,M,,M,,*4C
$GPRMC,230311.489,V,,,,,0.09,333.49,220914,,,N*41
$GPGGA,230311.689,,,,,0,3,,,M,,M,,*4E
$GPRMC,230311.689,V,,,,,0.02,333.49,220914,,,N*48
$GPGGA,230311.889,,,,,0,3,,,M,,M,,*40
$GPRMC,230311.889,V,,,,,0.04,333.49,220914,,,N*40
$GPGGA,230312.089,,,,,0,3,,,M,,M,,*4B
$GPRMC,230312.089,V,,,,,0.05,333.49,220914,,,N*4A
$GPGGA,230312.289,,,,,0,3,,,M,,M,,*49
$GPRMC,230312.289,V,,,,,0.14,333.49,220914,,,N*48
$GPGGA,230312.489,,,,,0,3,,,M,,M,,*4F
$GPRMC,230312.489,V,,,,,0.15,333.49,220914,,,N*4F
$GPGGA,230312.689,,,,,0,3,,,M,,M,,*4D
$GPRMC,230312.689,V,,,,,0.06,333.49,220914,,,N*4F
$GPGGA,230312.889,,,,,0,3,,,M,,M,,*43
$GPRMC,230312.889,V,,,,,0.07,333.49,220914,,,N*40
$GPGGA,230313.089,,,,,0,3,,,M,,M,,*4A
$GPRMC,230313.089,V,,,,,0.02,333.49,220914,,,N*4C
$GPGGA,230313.289,,,,,0,3,,,M,,M,,*48
$GPRMC,230313.289,V,,,,,0.08,333.49,220914,,,N*44
$GPGGA,230313.489,,,,,0,3,,,M,,M,,*4E
$GPRMC,230313.489,V,,,,,0.06,333.49,220914,,,N*4C
$GPGGA,230313.689,,,,,0,3,,,M,,M,,*4C
$GPRMC,230313.689,V,,,,,0.08,333.49,220914,,,N*40
$GPGGA,230313.889,,,,,0,3,,,M,,M,,*42
$GPRMC,230313.889,V,,,,,0.14,333.49,220914,,,N*43
$GPGGA,230314.089,,,,,0,3,,,M,,M,,*4D
$GPRMC,230314.089,V,,,,,0.08,333.49,220914,,,N*41
$GPGGA,230314.289,,,,,0,3,,,M,,M,,*4F
$GPRMC,230314.289,V,,,,,0.09,333.49,220914,,,N*42
$GPGGA,230314.489,,,,,0,3,,,M,,M,,*49
$GPRMC,230314.489,V,,,,,0.17,333.49,220914,,,N*4B
$GPGGA,230314.689,,,,,0,3,,,M,,M,,*4B
$GPRMC,230314.689,V,,,,,0.11,333.49,220914,,,N*4F
$GPGGA,230314.889,,,,,0,3,,,M,,M,,*45
$GPRMC,230314.889,V,,,,,0.10,333.49,220914,,,N*40
$GPGGA,230315.089,,,,,0,3,,,M,,M,,*4C
$GPRMC,230315.089,V,,,,,0.11,333.49,220914,,,N*48
$GPGGA,230315.289,,,,,0,3,,,M,,M,,*4E
$GPRMC,230315.289,V,,,,,0.22,333.49,220914,,,N*4A
$GPGGA,230315.489,,,,,0,3,,,M,,M,,*48
$GPRMC,230315.489,V,,,,,0.29,333.49,220914,,,N*47
$GPGGA,230315.689,,,,,0,3,,,M,,M,,*4A
$GPRMC,230315.689,V,,,,,0.28,333.49,220914,,,N*44
$GPGGA,230315.889,,,,,0,3,,,M,,M,,*44
$GPRMC,230315.889,V,,,,,0.28,333.49,220914,,,N*4A
$GPGGA,230316.089,,,,,0,3,,,M,,M,,*4F
$GPRMC,230316.089,V,,,,,0.24,333.49,220914,,,N*4D
$GPGGA,230316.289,,,,,0,3,,,M,,M,,*4D
$GPRMC,230316.289,V,,,,,0.24,333.49,220914,,,N*4F
$GPGGA,230316.489,,,,,0,3,,,M,,M,,*4B
$GPRMC,230316.489,V,,,,,0.39,333.49,220914,,,N*45
$GPGGA,230316.689,,,,,0,3,,,M,,M,,*49
$GPRMC,230316.689,V,,,,,0.27,333.49,220914,,,N*48
$GPGGA,230316.889,,,,,0,3,,,M,,M,,*47
$GPRMC,230316.889,V,,,,,0.28,333.49,220914,,,N*49
$GPGGA,230317.089,,,,,0,3,,,M,,M,,*4E
$GPRMC,230317.089,V,,,,,0.19,333.49,220914,,,N*42
$GPGGA,230317.289,,,,,0,3,,,M,,M,,*4C
$GPRMC,230317.289,V,,,,,0.20,333.49,220914,,,N*4A
$GPGGA,230317.489,,,,,0,3,,,M,,M,,*4A
$GPRMC,230317.489,V,,,,,0.32,333.49,220914,,,N*4F
$GPGGA,230317.689,,,,,0,3,,,M,,M,,*48
$GPRMC,230317.689,V,,,,,0.23,333.49,220914,,,N*4D
$GPGGA,230317.889,,,,,0,3,,,M,,M,,*46
$GPRMC,230317.889,V,,,,,0.38,333.49,220914,,,N*49
$GPGGA,230318.089,,,,,0,3,,,M,,M,,*41
$GPRMC,230318.089,V,,,,,0.21,333.49,220914,,,N*46
$GPGGA,230318.289,,,,,0,3,,,M,,M,,*43
$GPRMC,230318.289,V,,,,,0.40,333.49,220914,,,N*43
$GPGGA,230318.489,,,,,0,3,,,M,,M,,*45
$GPRMC,230318.489,V,,,,,0.39,333.49,220914,,,N*4B
$GPGGA,230318.689,,,,,0,3,,,M,,M,,*47
$GPRMC,230318.689,V,,,,,0.25,333.49,220914,,,N*44
$GPGGA,230318.889,,,,,0,3,,,M,,M,,*49
$GPRMC,230318.889,V,,,,,0.36,333.49,220914,,,N*48
$GPGGA,230319.089,,,,,0,3,,,M,,M,,*40
$GPRMC,230319.089,V,,,,,0.41,333.49,220914,,,N*41
$GPGGA,230319.289,,,,,0,3,,,M,,M,,*42
$GPRMC,230319.289,V,,,,,0.18,333.49,220914,,,N*4F
$GPGGA,230319.489,,,,,0,3,,,M,,M,,*44
$GPRMC,230319.489,V,,,,,0.10,333.49,220914,,,N*41
$GPGGA,230319.689,,,,,0,3,,,M,,M,,*46
$GPRMC,230319.689,V,,,,,0.13,333.49,220914,,,N*40
$GPGGA,230319.889,,,,,0,3,,,M,,M,,*48
$GPRMC,230319.889,V,,,,,0.28,333.49,220914,,,N*46
$GPGGA,230320.089,,,,,0,3,,,M,,M,,*4A
$GPRMC,230320.089,V,,,,,0.10,333.49,220914,,,N*4F
$GPGGA,230320.289,,,,,0,3,,,M,,M,,*48
$GPRMC,230320.289,V,,,,,0.27,333.49,220914,,,N*49
$GPGGA,230320.489,,,,,0,3,,,M,,M,,*4E
$GPRMC,230320.489,V,,,,,0.14,333.49,220914,,,N*4F
$GPGGA,230320.689,,,,,0,3,,,M,,M,,*4C
$GPRMC,230320.689,V,,,,,0.04,333.49,220914,,,N*4C
$GPGGA,230320.889,,,,,0,3,,,M,,M,,*42
$GPRMC,230320.889,V,,,,,0.09,333.49,220914,,,N*4F
$GPGGA,230321.089,,,,,0,3,,,M,,M,,*4B
$GPRMC,230321.089,V,,,,,0.26,333.49,220914,,,N*4B
$GPGGA,230321.289,,,,,0,3,,,M,,M,,*49
$GPRMC,230321.289,V,,,,,0.43,333.49,220914,,,N*4A
$GPGGA,230321.489,,,,,0,3,,,M,,M,,*4F
$GPRMC,230321.489,V,,,,,0.33,333.49,220914,,,N*4B
$GPGGA,230321.689,,,,,0,3,,,M,,M,,*4D
$GPRMC,230321.689,V,,,,,0.21,333.49,220914,,,N*4A
$GPGGA,230321.889,,,,,0,3,,,M,,M,,*43
$GPRMC,230321.889,V,,,,,0.29,333.49,220914,,,N*4C
$GPGGA,230322.089,,,,,0,3,,,M,,M,,*48
$GPRMC,230322.089,V,,,,,0.21,333.49,220914,,,N*4F
$GPGGA,230322.289,,,,,0,3,,,M,,M,,*4A
$GPRMC,230322.289,V,,,,,0.27,333.49,220914,,,N*4B
$GPGGA,230322.489,,,,,0,3,,,M,,M,,*4C
$GPRMC,230322.489,V,,,,,0.35,333.49,220914,,,N*4E
$GPGGA,230322.689,,,,,0,3,,,M,,M,,*4E
$GPRMC,230322.689,V,,,,,0.33,333.49,220914,,,N*4A
$GPGGA,230322.889,,,,,0,3,,,M,,M,,*40
$GPRMC,230322.889,V,,,,,0.46,333.49,220914,,,N*46
$GPGGA,230323.089,,,,,0,3,,,M,,M,,*49
$GPRMC,230323.089,V,,,,,0.42,333.49,220914,,,N*4B
$GPGGA,230323.289,,,,,0,3,,,M,,M,,*4B
$GPRMC,230323.289,V,,,,,0.30,333.49,220914,,,N*4C
$GPGGA,230323.489,,,,,0,3,,,M,,M,,*4D
$GPRMC,230323.489,V,,,,,0.38,333.49,220914,,,N*42
$GPGGA,230323.689,,,,,0,3,,,M,,M,,*4F
$GPRMC,230323.689,V,,,,,0.24,333.49,220914,,,N*4D
$GPGGA,230323.889,,,,,0,3,,,M,,M,,*41
$GPRMC,230323.889,V,,,,,0.35,333.49,220914,,,N*43
$GPGGA,230324.089,,,,,0,3,,,M,,M,,*4E
$GPRMC,230324.089,V,,,,,0.44,333.49,220914,,,N*4A
$GPGGA,230324.289,,,,,0,3,,,M,,M,,*4C
$GPRMC,230324.289,V,,,,,0.26,333.49,220914,,,N*4C
$GPGGA,230324.489,,,,,0,3,,,M,,M,,*4A
$GPRMC,230324.489,V,,,,,0.44,333.49,220914,,,N*4E
$GPGGA,230324.689,,,,,0,3,,,M,,M,,*48
$GPRMC,230324.689,V,,,,,0.23,333.49,220914,,,N*4D
$GPGGA,230324.889,,,,,0,3,,,M,,M,,*46
$GPRMC,230324.889,V,,,,,0.40,333.49,220914,,,N*46
$GPGGA,230325.089,,,,,0,3,,,M,,M,,*4F
$GPRMC,230325.089,V,,,,,0.37,333.49,220914,,,N*4F
$GPGGA,230325.289,,,,,0,3,,,M,,M,,*4D
$GPRMC,230325.289,V,,,,,0.48,333.49,220914,,,N*45
$GPGGA,230325.489,,,,,0,3,,,M,,M,,*4B
$GPRMC,230325.489,V,,,,,0.47,333.49,220914,,,N*4C
$GPGGA,230325.689,,,,,0,3,,,M,,M,,*49
$GPRMC,230325.689,V,,,,,0.37,333.49,220914,,,N*49
$GPGGA,230325.889,,,,,0,3,,,M,,M,,*47
$GPRMC,230325.889,V,,,,,0.41,333.49,220914,,,N*46
$GPGGA,230326.089,,,,,0,3,,,M,,M,,*4C
$GPRMC,230326.089,V,,,,,0.35,333.49,220914,,,N*4E
$GPGGA,230326.289,,,,,0,3,,,M,,M,,*4E
$GPRMC,230326.289,V,,,,,0.27,333.49,220914,,,N*4F
$GPGGA,230326.489,,,,,0,3,,,M,,M,,*48
$GPRMC,230326.489,V,,,,,0.09,333.49,220914,,,N*45
$GPGGA,230326.689,,,,,0,3,,,M,,M,,*4A
$GPRMC,230326.689,V,,,,,0.19,333.49,220914,,,N*46
$GPGGA,230326.889,,,,,0,3,,,M,,M,,*44
$GPRMC,230326.889,V,,,,,0.11,333.49,220914,,,N*40
$GPGGA,230327.089,,,,,0,3,,,M,,M,,*4D
$GPRMC,230327.089,V,,,,,0.06,333.49,220914,,,N*4F
$GPGGA,230327.289,,,,,0,3,,,M,,M,,*4F
$GPRMC,230327.289,V,,,,,0.15,333.49,220914,,,N*4F
$GPGGA,230327.489,,,,,0,3,,,M,,M,,*49
$GPRMC,230327.489,V,,,,,0.13,333.49,220914,,,N*4F
$GPGGA,230327.689,,,,,0,3,,,M,,M,,*4B
$GPRMC,230327.689,V,,,,,0.09,333.49,220914,,,N*46
$GPGGA,230327.889,,,,,0,3,,,M,,M,,*45
$GPRMC,230327.889,V,,,,,0.13,333.49,220914,,,N*43
$GPGGA,230328.089,,,,,0,3,,,M,,M,,*42
$GPRMC,230328.089,V,,,,,0.24,333.49,220914,,,N*40
$GPGGA,230328.289,,,,,0,3,,,M,,M,,*40
$GPRMC,230328.289,V,,,,,0.40,333.49,220914,,,N*40
$GPGGA,230328.489,,,,,0,3,,,M,,M,,*46
$GPRMC,230328.489,V,,,,,0.53,333.49,220914,,,N*44
$GPGGA,230328.689,,,,,0,3,,,M,,M,,*44
$GPRMC,230328.689,V,,,,,0.37,333.49,220914,,,N*44
$GPGGA,230328.889,,,,,0,3,,,M,,M,,*4A
$GPRMC,230328.889,V,,,,,0.51,333.49,220914,,,N*4A
$GPGGA,230329.089,,,,,0,3,,,M,,M,,*43
$GPRMC,230329.089,V,,,,,0.60,328.83,220914,,,N*4D
$GPGGA,230329.289,,,,,0,3,,,M,,M,,*41
$GPRMC,230329.289,V,,,,,0.63,323.21,220914,,,N*4F
$GPGGA,230329.489,,,,,0,3,,,M,,M,,*47
$GPRMC,230329.489,V,,,,,0.69,330.92,220914,,,N*49
$GPGGA,230329.689,,,,,0,3,,,M,,M,,*45
$GPRMC,230329.689,V,,,,,0.53,330.92,220914,,,N*42
$GPGGA,230329.889,,,,,0,3,,,M,,M,,*4B
$GPRMC,230329.889,V,,,,,0.73,331.16,220914,,,N*43
$GPGGA,230330.089,,,,,0,3,,,M,,M,,*4B
$GPRMC,230330.089,V,,,,,0.64,340.29,220914,,,N*4F
$GPGGA,230330.289,,,,,0,3,,,M,,M,,*49
$GPRMC,230330.289,V,,,,,0.44,340.29,220914,,,N*4F
$GPGGA,230330.489,,,,,0,3,,,M,,M,,*4F
$GPRMC,230330.489,V,,,,,0.55,340.29,220914,,,N*49
$GPGGA,230330.689,,,,,0,3,,,M,,M,,*4D
$GPRMC,230330.689,V,,,,,0.29,340.29,220914,,,N*40
$GPGGA,230330.889,,,,,0,3,,,M,,M,,*43
$GPRMC,230330.889,V,,,,,0.16,340.29,220914,,,N*42
$GPGGA,230331.089,,,,,0,3,,,M,,M,,*4A
$GPRMC,230331.089,V,,,,,0.08,340.29,220914,,,N*44
$GPGGA,230331.289,,,,,0,3,,,M,,M,,*48
$GPRMC,230331.289,V,,,,,0.22,340.29,220914,,,N*4E
$GPGGA,230331.489,,,,,0,3,,,M,,M,,*4E
$GPRMC,230331.489,V,,,,,0.30,340.29,220914,,,N*4B
$GPGGA,230331.689,,,,,0,3,,,M,,M,,*4C
$GPRMC,230331.689,V,,,,,0.16,340.29,220914,,,N*4D
$GPGGA,230331.889,,,,,0,3,,,M,,M,,*42
$GPRMC,230331.889,V,,,,,0.38,340.29,220914,,,N*4F
$GPGGA,230332.089,,,,,0,3,,,M,,M,,*49
$GPRMC,230332.089,V,,,,,0.48,340.29,220914,,,N*43
$GPGGA,230332.289,,,,,0,3,,,M,,M,,*4B
$GPRMC,230332.289,V,,,,,0.55,340.29,220914,,,N*4D
$GPGGA,230332.489,,,,,0,3,,,M,,M,,*4D
$GPRMC,230332.489,V,,,,,0.60,167.59,220914,,,N*4D
$GPGGA,230332.689,,,,,0,3,,,M,,M,,*4F
$GPRMC,230332.689,V,,,,,0.44,167.59,220914,,,N*49
$GPGGA,230332.889,,,,,0,3,,,M,,M,,*41
$GPRMC,230332.889,V,,,,,0.37,167.59,220914,,,N*43
$GPGGA,230333.089,,,,,0,3,,,M,,M,,*48
$GPRMC,230333.089,V,,,,,0.52,167.59,220914,,,N*49
$GPGGA,230333.289,,,,,0,3,,,M,,M,,*4A
$GPRMC,230333.289,V,,,,,0.56,167.59,220914,,,N*4F
$GPGGA,230333.489,,,,,0,3,,,M,,M,,*4C
$GPRMC,230333.489,V,,,,,0.36,167.59,220914,,,N*4F
$GPGGA,230333.689,,,,,0,3,,,M,,M,,*4E
$GPRMC,230333.689,V,,,,,0.10,167.59,220914,,,N*49
$GPGGA,230333.889,,,,,0,3,,,M,,M,,*40
$GPRMC,230333.889,V,,,,,0.08,167.59,220914,,,N*4E
$GPGGA,230334.089,,,,,0,3,,,M,,M,,*4F
$GPRMC,230334.089,V,,,,,0.33,167.59,220914,,,N*49
$GPGGA,230334.289,,,,,0,3,,,M,,M,,*4D
$GPRMC,230334.289,V,,,,,0.37,167.59,220914,,,N*4F
$GPGGA,230334.489,,,,,0,3,,,M,,M,,*4B
$GPRMC,230334.489,V,,,,,0.19,167.59,220914,,,N*45
$GPGGA,230334.689,,,,,0,3,,,M,,M,,*49
$GPRMC,230334.689,V,,,,,0.19,167.59,220914,,,N*47
$GPGGA,230334.889,,,,,0,3,,,M,,M,,*47
$GPRMC,230334.889,V,,,,,0.19,167.59,220914,,,N*49
$GPGGA,230335.089,,,,,0,3,,,M,,M,,*4E
$GPRMC,230335.089,V,,,,,0.28,167.59,220914,,,N*42
$GPGGA,230335.289,,,,,0,3,,,M,,M,,*4C
$GPRMC,230335.289,V,,,,,0.20,167.59,220914,,,N*48
$GPGGA,230335.489,,,,,0,3,,,M,,M,,*4A
$GPRMC,230335.489,V,,,,,0.24,167.59,220914,,,N*4A
$GPGGA,230335.689,,,,,0,3,,,M,,M,,*48
$GPRMC,230335.689,V,,,,,0.21,167.59,220914,,,N*4D
$GPGGA,230335.889,,,,,0,3,,,M,,M,,*46
$GPRMC,230335.889,V,,,,,0.22,167.59,220914,,,N*40
$GPGGA,230336.089,,,,,0,3,,,M,,M,,*4D
$GPRMC,230336.089,V,,,,,0.07,167.59,220914,,,N*4C
$GPGGA,230336.289,,,,,0,3,,,M,,M,,*4F
$GPRMC,230336.289,V,,,,,0.08,167.59,220914,,,N*41
$GPGGA,230336.489,,,,,0,3,,,M,,M,,*49
$GPRMC,230336.489,V,,,,,0.13,167.59,220914,,,N*4D
$GPGGA,230336.689,,,,,0,3,,,M,,M,,*4B
$GPRMC,230336.689,V,,,,,0.14,167.59,220914,,,N*48
$GPGGA,230336.889,,,,,0,3,,,M,,M,,*45
$GPRMC,230336.889,V,,,,,0.23,167.59,220914,,,N*42
$GPGGA,230337.089,,,,,0,3,,,M,,M,,*4C
$GPRMC,230337.089,V,,,,,0.36,167.59,220914,,,N*4F
$GPGGA,230337.289,,,,,0,3,,,M,,M,,*4E
$GPRMC,230337.289,V,,,,,0.37,167.59,220914,,,N*4C
$GPGGA,230337.489,,,,,0,3,,,M,,M,,*48
$GPRMC,230337.489,V,,,,,0.34,167.59,220914,,,N*49
$GPGGA,230337.689,,,,,0,3,,,M,,M,,*4A
$GPRMC,230337.689,V,,,,,0.28,167.59,220914,,,N*46
$GPGGA,230337.889,,,,,0,3,,,M,,M,,*44
$GPRMC,230337.889,V,,,,,0.21,167.59,220914,,,N*41
$GPGGA,230338.089,,,,,0,3,,,M,,M,,*43
$GPRMC,230338.089,V,,,,,0.27,167.59,220914,,,N*40
$GPGGA,230338.289,,,,,0,3,,,M,,M,,*41
$GPRMC,230338.289,V,,,,,0.30,167.59,220914,,,N*44
$GPGGA,230338.489,,,,,0,3,,,M,,M,,*47
$GPRMC,230338.489,V,,,,,0.22,167.59,220914,,,N*41
$GPGGA,230338.689,,,,,0,3,,,M,,M,,*45
$GPRMC,230338.689,V,,,,,0.05,167.59,220914,,,N*46
$GPGGA,230338.889,,,,,0,3,,,M,,M,,*4B
$GPRMC,230338.889,V,,,,,0.09,167.59,220914,,,N*44
$GPGGA,230339.089,,,,,0,3,,,M,,M,,*42
$GPRMC,230339.089,V,,,,,0.03,167.59,220914,,,N*47
$GPGGA,230339.289,,,,,0,3,,,M,,M,,*40
$GPRMC,230339.289,V,,,,,0.11,167.59,220914,,,N*46
$GPGGA,230339.489,,,,,0,3,,,M,,M,,*46
$GPRMC,230339.489,V,,,,,0.44,167.59,220914,,,N*40
$GPGGA,230339.689,,,,,0,3,,,M,,M,,*44
$GPRMC,230339.689,V,,,,,0.40,167.59,220914,,,N*46
$GPGGA,230339.889,,,,,0,3,,,M,,M,,*4A
$GPRMC,230339.889,V,,,,,0.43,167.59,220914,,,N*4B
$GPGGA,230340.089,,,,,0,3,,,M,,M,,*4C
$GPRMC,230340.089,V,,,,,0.42,167.59,220914,,,N*4C
$GPGGA,230340.289,,,,,0,3,,,M,,M,,*4E
$GPRMC,230340.289,V,,,,,0.44,167.59,220914,,,N*48
$GPGGA,230340.489,,,,,0,3,,,M,,M,,*48
$GPRMC,230340.489,V,,,,,0.41,167.59,220914,,,N*4B
$GPGGA,230340.689,,,,,0,3,,,M,,M,,*4A
$GPRMC,230340.689,V,,,,,0.41,167.59,220914,,,N*49
$GPGGA,230340.889,,,,,0,3,,,M,,M,,*44
$GPRMC,230340.889,V,,,,,0.43,167.59,220914,,,N*45
$GPGGA,230341.089,,,,,0,3,,,M,,M,,*4D
$GPRMC,230341.089,V,,,,,0.42,167.59,220914,,,N*4D
$GPGGA,230341.289,,,,,0,3,,,M,,M,,*4F
$GPRMC,230341.289,V,,,,,0.30,167.59,220914,,,N*4A
$GPGGA,230341.489,,,,,0,3,,,M,,M,,*49
$GPRMC,230341.489,V,,,,,0.38,167.59,220914,,,N*44
$GPGGA,230341.689,,,,,0,3,,,M,,M,,*4B
$GPRMC,230341.689,V,,,,,0.25,167.59,220914,,,N*4A
$GPGGA,230341.889,,,,,0,3,,,M,,M,,*45
$GPRMC,230341.889,V,,,,,0.28,167.59,220914,,,N*49
$GPGGA,230342.089,,,,,0,3,,,M,,M,,*4E
$GPRMC,230342.089,V,,,,,0.25,167.59,220914,,,N*4F
$GPGGA,230342.289,,,,,0,3,,,M,,M,,*4C
$GPRMC,230342.289,V,,,,,0.06,167.59,220914,,,N*4C
$GPGGA,230342.489,,,,,0,3,,,M,,M,,*4A
$GPRMC,230342.489,V,,,,,0.12,167.59,220914,,,N*4F
$GPGGA,230342.689,,,,,0,3,,,M,,M,,*48
$GPRMC,230342.689,V,,,,,0.12,167.59,220914,,,N*4D
$GPGGA,230342.889,,,,,0,3,,,M,,M,,*46
$GPRMC,230342.889,V,,,,,0.27,167.59,220914,,,N*45
$GPGGA,230343.089,,,,,0,3,,,M,,M,,*4F
$GPRMC,230343.089,V,,,,,0.40,167.59,220914,,,N*4D
$GPGGA,230343.289,,,,,0,3,,,M,,M,,*4D
$GPRMC,230343.289,V,,,,,0.30,167.59,220914,,,N*48
$GPGGA,230343.489,,,,,0,3,,,M,,M,,*4B
$GPRMC,230343.489,V,,,,,0.29,167.59,220914,,,N*46
$GPGGA,230343.689,,,,,0,3,,,M,,M,,*49
$GPRMC,230343.689,V,,,,,0.21,167.59,220914,,,N*4C
$GPGGA,230343.889,,,,,0,3,,,M,,M,,*47
$GPRMC,230343.889,V,,,,,0.25,167.59,220914,,,N*46
$GPGGA,230344.089,,,,,0,3,,,M,,M,,*48
$GPRMC,230344.089,V,,,,,0.21,167.59,220914,,,N*4D
$GPGGA,230344.289,,,,,0,3,,,M,,M,,*4A
$GPRMC,230344.289,V,,,,,0.19,167.59,220914,,,N*44
$GPGGA,230344.489,,,,,0,3,,,M,,M,,*4C
$GPRMC,230344.489,V,,,,,0.25,167.59,220914,,,N*4D
$GPGGA,230344.689,,,,,0,3,,,M,,M,,*4E
$GPRMC,230344.689,V,,,,,0.24,167.59,220914,,,N*4E
$GPGGA,230344.889,,,,,0,3,,,M,,M,,*40
$GPRMC,230344.889,V,,,,,0.27,167.59,220914,,,N*43
$GPGGA,230345.089,,,,,0,3,,,M,,M,,*49
$GPRMC,230345.089,V,,,,,0.28,167.59,220914,,,N*45
$GPGGA,230345.289,,,,,0,3,,,M,,M,,*4B
$GPRMC,230345.289,V,,,,,0.23,167.59,220914,,,N*4C
$GPGGA,230345.489,,,,,0,3,,,M,,M,,*4D
$GPRMC,230345.489,V,,,,,0.12,167.59,220914,,,N*48
$GPGGA,230345.689,,,,,0,3,,,M,,M,,*4F
$GPRMC,230345.689,V,,,,,0.14,167.59,220914,,,N*4C
$GPGGA,230345.889,,,,,0,3,,,M,,M,,*41
$GPRMC,230345.889,V,,,,,0.29,167.59,220914,,,N*4C
$GPGGA,230346.089,,,,,0,3,,,M,,M,,*4A
$GPRMC,230346.089,V,,,,,0.21,167.59,220914,,,N*4F
$GPGGA,230346.289,,,,,0,3,,,M,,M,,*48
$GPRMC,230346.289,V,,,,,0.16,167.59,220914,,,N*49
$GPGGA,230346.489,,,,,0,3,,,M,,M,,*4E
$GPRMC,230346.489,V,,,,,0.09,167.59,220914,,,N*41
$GPGGA,230346.689,,,,,0,3,,,M,,M,,*4C
$GPRMC,230346.689,V,,,,,0.05,167.59,220914,,,N*4F
$GPGGA,230346.889,,,,,0,3,,,M,,M,,*42
$GPRMC,230346.889,V,,,,,0.07,167.59,220914,,,N*43
$GPGGA,230347.089,,,,,0,3,,,M,,M,,*4B
$GPRMC,230347.089,V,,,,,0.20,167.59,220914,,,N*4F
$GPGGA,230347.289,,,,,0,3,,,M,,M,,*49
$GPRMC,230347.289,V,,,,,0.22,167.59,220914,,,N*4F
$GPGGA,230347.489,,,,,0,3,,,M,,M,,*4F
$GPRMC,230347.489,V,,,,,0.30,167.59,220914,,,N*4A
$GPGGA,230347.689,,,,,0,3,,,M,,M,,*4D
$GPRMC,230347.689,V,,,,,0.14,167.59,220914,,,N*4E
$GPGGA,230347.889,,,,,0,3,,,M,,M,,*43
$GPRMC,230347.889,V,,,,,0.14,167.59,220914,,,N*40
$GPGGA,230348.089,,,,,0,3,,,M,,M,,*44
$GPRMC,230348.089,V,,,,,0.06,167.59,220914,,,N*44
$GPGGA,230348.289,,,,,0,3,,,M,,M,,*46
$GPRMC,230348.289,V,,,,,0.24,167.59,220914,,,N*46
$GPGGA,230348.489,,,,,0,3,,,M,,M,,*40
$GPRMC,230348.489,V,,,,,0.22,167.59,220914,,,N*46
$GPGGA,230348.689,,,,,0,3,,,M,,M,,*42
$GPRMC,230348.689,V,,,,,0.13,167.59,220914,,,N*46
$GPGGA,230348.889,,,,,0,3,,,M,,M,,*4C
$GPRMC,230348.889,V,,,,,0.34,167.59,220914,,,N*4D
$GPGGA,230349.089,,,,,0,3,,,M,,M,,*45
$GPRMC,230349.089,V,,,,,0.17,167.59,220914,,,N*45
$GPGGA,230349.289,,,,,0,3,,,M,,M,,*47
$GPRMC,230349.289,V,,,,,0.22,167.59,220914,,,N*41
$GPGGA,230349.489,,,,,0,3,,,M,,M,,*41
$GPRMC,230349.489,V,,,,,0.11,167.59,220914,,,N*47
$GPGGA,230349.689,,,,,0,3,,,M,,M,,*43
$GPRMC,230349.689,V,,,,,0.08,167.59,220914,,,N*4D
$GPGGA,230349.889,,,,,0,3,,,M,,M,,*4D
$GPRMC,230349.889,V,,,,,0.29,167.59,220914,,,N*40
$GPGGA,230350.089,,,,,0,3,,,M,,M,,*4D
$GPRMC,230350.089,V,,,,,0.39,167.59,220914,,,N*41
$GPGGA,230350.289,,,,,0,3,,,M,,M,,*4F
$GPRMC,230350.289,V,,,,,0.28,167.59,220914,,,N*43
$GPGGA,230350.489,,,,,0,3,,,M,,M,,*49
$GPRMC,230350.489,V,,,,,0.20,167.59,220914,,,N*4D
$GPGGA,230350.689,,,,,0,3,,,M,,M,,*4B
$GPRMC,230350.689,V,,,,,0.18,167.59,220914,,,N*44
$GPGGA,230350.889,,,,,0,3,,,M,,M,,*45
$GPRMC,230350.889,V,,,,,0.15,167.59,220914,,,N*47
$GPGGA,230351.089,,,,,0,3,,,M,,M,,*4C
$GPRMC,230351.089,V,,,,,0.15,167.59,220914,,,N*4E
$GPGGA,230351.289,,,,,0,3,,,M,,M,,*4E
$GPRMC,230351.289,V,,,,,0.31,167.59,220914,,,N*4A
$GPGGA,230351.489,,,,,0,3,,,M,,M,,*48
$GPRMC,230351.489,V,,,,,0.14,167.59,220914,,,N*4B
$GPGGA,230351.689,,,,,0,3,,,M,,M,,*4A
$GPRMC,230351.689,V,,,,,0.11,167.59,220914,,,N*4C
$GPGGA,230351.889,,,,,0,3,,,M,,M,,*44
$GPRMC,230351.889,V,,,,,0.19,167.59,220914,,,N*4A
$GPGGA,230352.089,,,,,0,3,,,M,,M,,*4F
$GPRMC,230352.089,V,,,,,0.42,167.59,220914,,,N*4F
$GPGGA,230352.289,,,,,0,3,,,M,,M,,*4D
$GPRMC,230352.289,V,,,,,0.22,167.59,220914,,,N*4B
$GPGGA,230352.489,,,,,0,3,,,M,,M,,*4B
$GPRMC,230352.489,V,,,,,0.10,167.59,220914,,,N*4C
$GPGGA,230352.689,,,,,0,3,,,M,,M,,*49
$GPRMC,230352.689,V,,,,,0.06,167.59,220914,,,N*49
$GPGGA,230352.889,,,,,0,3,,,M,,M,,*47
$GPRMC,230352.889,V,,,,,0.28,167.59,220914,,,N*4B
$GPGGA,230353.089,,,,,0,3,,,M,,M,,*4E
$GPRMC,230353.089,V,,,,,0.30,167.59,220914,,,N*4B
$GPGGA,230353.289,,,,,0,3,,,M,,M,,*4C
$GPRMC,230353.289,V,,,,,0.53,167.59,220914,,,N*4C
$GPGGA,230353.489,,,,,0,3,,,M,,M,,*4A
$GPRMC,230353.489,V,,,,,0.32,167.59,220914,,,N*4D
$GPGGA,230353.689,,,,,0,3,,,M,,M,,*48
$GPRMC,230353.689,V,,,,,0.07,167.59,220914,,,N*49
$GPGGA,230353.889,,,,,0,3,,,M,,M,,*46
$GPRMC,230353.889,V,,,,,0.04,167.59,220914,,,N*44
$GPGGA,230354.089,,,,,0,3,,,M,,M,,*49
$GPRMC,230354.089,V,,,,,0.14,167.59,220914,,,N*4A
$GPGGA,230354.289,,,,,0,3,,,M,,M,,*4B
$GPRMC,230354.289,V,,,,,0.03,167.59,220914,,,N*4E
$GPGGA,230354.489,,,,,0,3,,,M,,M,,*4D
$GPRMC,230354.489,V,,,,,0.13,167.59,220914,,,N*49
$GPGGA,230354.689,,,,,0,3,,,M,,M,,*4F
$GPRMC,230354.689,V,,,,,0.20,167.59,220914,,,N*4B
$GPGGA,230354.889,,,,,0,3,,,M,,M,,*41
$GPRMC,230354.889,V,,,,,0.14,167.59,220914,,,N*42
$GPGGA,230355.089,,,,,0,3,,,M,,M,,*48
$GPRMC,230355.089,V,,,,,0.14,167.59,220914,,,N*4B
$GPGGA,230355.289,,,,,0,3,,,M,,M,,*4A
$GPRMC,230355.289,V,,,,,0.19,167.59,220914,,,N*44
$GPGGA,230355.489,,,,,0,3,,,M,,M,,*4C
$GPRMC,230355.489,V,,,,,0.02,167.59,220914,,,N*48
$GPGGA,230355.689,,,,,0,3,,,M,,M,,*4E
$GPRMC,230355.689,V,,,,,0.16,167.59,220914,,,N*4F
$GPGGA,230355.889,,,,,0,3,,,M,,M,,*40
$GPRMC,230355.889,V,,,,,0.27,167.59,220914,,,N*43
$GPGGA,230356.089,,,,,0,3,,,M,,M,,*4B
$GPRMC,230356.089,V,,,,,0.23,167.59,220914,,,N*4C
$GPGGA,230356.289,,,,,0,3,,,M,,M,,*49
$GPRMC,230356.289,V,,,,,0.23,167.59,220914,,,N*4E
$GPGGA,230356.489,,,,,0,3,,,M,,M,,*4F
$GPRMC,230356.489,V,,,,,0.37,167.59,220914,,,N*4D
$GPGGA,230356.689,,,,,0,3,,,M,,M,,*4D
$GPRMC,230356.689,V,,,,,0.24,167.59,220914,,,N*4D
$GPGGA,230356.889,,,,,0,3,,,M,,M,,*43
$GPRMC,230356.889,V,,,,,0.06,167.59,220914,,,N*43
$GPGGA,230357.089,,,,,0,3,,,M,,M,,*4A
$GPRMC,230357.089,V,,,,,0.14,167.59,220914,,,N*49
$GPGGA,230357.289,,,,,0,3,,,M,,M,,*48
$GPRMC,230357.289,V,,,,,0.15,167.59,220914,,,N*4A
$GPGGA,230357.489,,,,,0,3,,,M,,M,,*4E
$GPRMC,230357.489,V,,,,,0.21,167.59,220914,,,N*4B
$GPGGA,230357.689,,,,,0,3,,,M,,M,,*4C
$GPRMC,230357.689,V,,,,,0.25,167.59,220914,,,N*4D
$GPGGA,230357.889,,,,,0,3,,,M,,M,,*42
$GPRMC,230357.889,V,,,,,0.16,167.59,220914,,,N*43
$GPGGA,230358.089,,,,,0,3,,,M,,M,,*45
$GPRMC,230358.089,V,,,,,0.18,167.59,220914,,,N*4A
$GPGGA,230358.289,,,,,0,3,,,M,,M,,*47
$GPRMC,230358.289,V,,,,,0.30,167.59,220914,,,N*42
$GPGGA,230358.489,,,,,0,3,,,M,,M,,*41
$GPRMC,230358.489,V,,,,,0.29,167.59,220914,,,N*4C
$GPGGA,230358.689,,,,,0,3,,,M,,M,,*43
$GPRMC,230358.689,V,,,,,0.20,167.59,220914,,,N*47
$GPGGA,230358.889,,,,,0,3,,,M,,M,,*4D
$GPRMC,230358.889,V,,,,,0.17,167.59,220914,,,N*4D
$GPGGA,230359.089,,,,,0,3,,,M,,M,,*44
$GPRMC,230359.089,V,,,,,0.08,167.59,220914,,,N*4A
$GPGGA,230359.289,,,,,0,3,,,M,,M,,*46
$GPRMC,230359.289,V,,,,,0.28,167.59,220914,,,N*4A
$GPGGA,230359.489,,,,,0,3,,,M,,M,,*40
$GPRMC,230359.489,V,,,,,0.20,167.59,220914,,,N*44
$GPGGA,230359.689,,,,,0,3,,,M,,M,,*42
$GPRMC,230359.689,V,,,,,0.26,167.59,220914,,,N*40
$GPGGA,230359.889,,,,,0,3,,,M,,M,,*4C
$GPRMC,230359.889,V,,,,,0.25,167.59,220914,,,N*4D
$GPGGA,230400.089,,,,,0,3,,,M,,M,,*4F
$GPRMC,230400.089,V,,,,,0.37,167.59,220914,,,N*4D
$GPGGA,230400.289,,,,,0,3,,,M,,M,,*4D
$GPRMC,230400.289,V,,,,,0.39,167.59,220914,,,N*41
$GPGGA,230400.489,,,,,0,3,,,M,,M,,*4B
$GPRMC,230400.489,V,,,,,0.41,167.59,220914,,,N*48
$GPGGA,230400.689,,,,,0,3,,,M,,M,,*49
$GPRMC,230400.689,V,,,,,0.24,167.59,220914,,,N*49
$GPGGA,230400.889,,,,,0,3,,,M,,M,,*47
$GPRMC,230400.889,V,,,,,0.05,167.59,220914,,,N*44
$GPGGA,230401.089,,,,,0,3,,,M,,M,,*4E
$GPRMC,230401.089,V,,,,,0.25,167.59,220914,,,N*4F
$GPGGA,230401.289,,,,,0,3,,,M,,M,,*4C
$GPRMC,230401.289,V,,,,,0.15,167.59,220914,,,N*4E
$GPGGA,230401.489,,,,,0,3,,,M,,M,,*4A
$GPRMC,230401.489,V,,,,,0.20,167.59,220914,,,N*4E
$GPGGA,230401.689,,,,,0,3,,,M,,M,,*48
$GPRMC,230401.689,V,,,,,0.20,167.59,220914,,,N*4C
$GPGGA,230401.889,,,,,0,3,,,M,,M,,*46
$GPRMC,230401.889,V,,,,,0.14,167.59,220914,,,N*45
$GPGGA,230402.089,,,,,0,4,,,M,,M,,*4A
$GPRMC,230402.089,V,,,,,0.31,167.59,220914,,,N*49
$GPGGA,230402.289,3802.1489,N,08430.4112,W,1,4,2.85,303.7,M,-33.0,M,,*6F
$GPRMC,230402.289,A,3802.1489,N,08430.4112,W,0.49,167.59,220914,,,A*71
$GPGGA,230402.600,3802.1490,N,08430.4110,W,1,4,2.85,304.2,M,-33.0,M,,*62
$GPRMC,230402.600,A,3802.1490,N,08430.4110,W,0.34,167.59,220914,,,A*74
$GPGGA,230402.800,3802.1491,N,08430.4105,W,1,4,2.85,305.1,M,-33.0,M,,*6B
$GPRMC,230402.800,A,3802.1491,N,08430.4105,W,0.26,167.59,220914,,,A*7C
$GPGGA,230403.000,3802.1489,N,08430.4104,W,1,4,2.85,305.1,M,-33.0,M,,*6A
$GPRMC,230403.000,A,3802.1489,N,08430.4104,W,0.26,167.59,220914,,,A*7D
$GPGGA,230403.200,3802.1487,N,08430.4103,W,1,4,2.85,305.3,M,-33.0,M,,*63
$GPRMC,230403.200,A,3802.1487,N,08430.4103,W,0.23,167.59,220914,,,A*73
$GPGGA,230403.400,3802.1486,N,08430.4104,W,1,4,2.85,305.2,M,-33.0,M,,*62
$GPRMC,230403.400,A,3802.1486,N,08430.4104,W,0.25,167.59,220914,,,A*75
$GPGGA,230403.600,3802.1487,N,08430.4105,W,1,4,2.85,304.6,M,-33.0,M,,*65
$GPRMC,230403.600,A,3802.1487,N,08430.4105,W,0.27,167.59,220914,,,A*75
$GPGGA,230403.800,3802.1487,N,08430.4108,W,1,4,2.85,303.7,M,-33.0,M,,*60
$GPRMC,230403.800,A,3802.1487,N,08430.4108,W,0.28,167.59,220914,,,A*79
$GPGGA,230404.000,3802.1489,N,08430.4110,W,1,4,2.85,303.1,M,-33.0,M,,*6E
$GPRMC,230404.000,A,3802.1489,N,08430.4110,W,0.29,167.59,220914,,,A*70
$GPGGA,230404.200,3802.1491,N,08430.4113,W,1,4,2.85,302.5,M,-33.0,M,,*63
$GPRMC,230404.200,A,3802.1491,N,08430.4113,W,0.27,167.59,220914,,,A*76
$GPGGA,230404.400,3802.1492,N,08430.4113,W,1,4,2.85,302.3,M,-33.0,M,,*60
$GPRMC,230404.400,A,3802.1492,N,08430.4113,W,0.27,167.59,220914,,,A*73
$GPGGA,230404.600,3802.1493,N,08430.4114,W,1,4,2.85,302.1,M,-33.0,M,,*66
$GPRMC,230404.600,A,3802.1493,N,08430.4114,W,0.25,167.59,220914,,,A*75
$GPGGA,230404.800,3802.1493,N,08430.4114,W,1,4,2.85,302.1,M,-33.0,M,,*68
$GPRMC,230404.800,A,3802.1493,N,08430.4114,W,0.24,167.59,220914,,,A*7A
$GPGGA,230405.000,3802.1492,N,08430.4113,W,1,4,2.85,302.2,M,-33.0,M,,*64
$GPRMC,230405.000,A,3802.1492,N,08430.4113,W,0.20,167.59,220914,,,A*71
$GPGGA,230405.200,3802.1491,N,08430.4113,W,1,4,2.85,302.2,M,-33.0,M,,*65
$GPRMC,230405.200,A,3802.1491,N,08430.4113,W,0.18,167.59,220914,,,A*7B
$GPGGA,230405.400,3802.1491,N,08430.4113,W,1,4,2.85,302.2,M,-33.0,M,,*63
$GPRMC,230405.400,A,3802.1491,N,08430.4113,W,0.17,167.59,220914,,,A*72
$GPGGA,230405.600,3802.1492,N,08430.4114,W,1,4,2.85,301.9,M,-33.0,M,,*6D
$GPRMC,230405.600,A,3802.1492,N,08430.4114,W,0.16,167.59,220914,,,A*75
$GPGGA,230405.800,3802.1492,N,08430.4114,W,1,4,2.85,301.8,M,-33.0,M,,*62
$GPRMC,230405.800,A,3802.1492,N,08430.4114,W,0.15,167.59,220914,,,A*78
$GPGGA,230406.000,3802.1493,N,08430.4114,W,1,4,2.85,301.7,M,-33.0,M,,*67
$GPRMC,230406.000,A,3802.1493,N,08430.4114,W,0.13,167.59,220914,,,A*74
$GPGGA,230406.200,3802.1493,N,08430.4114,W,1,4,2.85,301.7,M,-33.0,M,,*65
$GPRMC,230406.200,A,3802.1493,N,08430.4114,W,0.10,167.59,220914,,,A*75
$GPGGA,230406.400,3802.1492,N,08430.4114,W,1,4,2.85,301.6,M,-33.0,M,,*63
$GPRMC,230406.400,A,3802.1492,N,08430.4114,W,0.10,167.59,220914,,,A*72
$GPGGA,230406.600,3802.1492,N,08430.4114,W,1,4,2.85,301.6,M,-33.0,M,,*61
$GPRMC,230406.600,A,3802.1492,N,08430.4114,W,0.11,167.59,220914,,,A*71
$GPGGA,230406.800,3802.1491,N,08430.4114,W,1,4,2.85,301.6,M,-33.0,M,,*6C
$GPRMC,230406.800,A,3802.1491,N,08430.4114,W,0.11,167.59,220914,,,A*7C
$GPGGA,230407.000,3802.1490,N,08430.4113,W,1,4,2.85,301.7,M,-33.0,M,,*62
$GPRMC,230407.000,A,3802.1490,N,08430.4113,W,0.12,167.59,220914,,,A*70
$GPGGA,230407.200,3802.1489,N,08430.4113,W,1,4,2.85,301.8,M,-33.0,M,,*67
$GPRMC,230407.200,A,3802.1489,N,08430.4113,W,0.11,167.59,220914,,,A*79
$GPGGA,230407.400,3802.1488,N,08430.4112,W,1,4,2.85,301.9,M,-33.0,M,,*60
$GPRMC,230407.400,A,3802.1488,N,08430.4112,W,0.07,167.59,220914,,,A*78
$GPGGA,230407.600,3802.1487,N,08430.4111,W,1,4,2.85,301.8,M,-33.0,M,,*6F
$GPRMC,230407.600,A,3802.1487,N,08430.4111,W,0.06,167.59,220914,,,A*77
$GPGGA,230407.800,3802.1487,N,08430.4111,W,1,4,2.85,301.6,M,-33.0,M,,*6F
$GPRMC,230407.800,A,3802.1487,N,08430.4111,W,0.06,167.59,220914,,,A*79
$GPGGA,230408.000,3802.1487,N,08430.4111,W,1,4,2.85,301.5,M,-33.0,M,,*6B
$GPRMC,230408.000,A,3802.1487,N,08430.4111,W,0.05,167.59,220914,,,A*7D
$GPGGA,230408.200,3802.1487,N,08430.4112,W,1,4,2.85,301.3,M,-33.0,M,,*6C
$GPRMC,230408.200,A,3802.1487,N,08430.4112,W,0.06,167.59,220914,,,A*7F
$GPGGA,230408.400,3802.1488,N,08430.4112,W,1,4,2.85,301.1,M,-33.0,M,,*67
$GPRMC,230408.400,A,3802.1488,N,08430.4112,W,0.06,167.59,220914,,,A*76
$GPGGA,230408.600,3802.1487,N,08430.4113,W,1,4,2.85,300.9,M,-33.0,M,,*62
$GPRMC,230408.600,A,3802.1487,N,08430.4113,W,0.08,167.59,220914,,,A*74
$GPGGA,230408.800,3802.1487,N,08430.4113,W,1,4,2.85,300.8,M,-33.0,M,,*6D
$GPRMC,230408.800,A,3802.1487,N,08430.4113,W,0.09,167.59,220914,,,A*7B
$GPGGA,230409.000,3802.1488,N,08430.4113,W,1,4,2.85,300.7,M,-33.0,M,,*64
$GPRMC,230409.000,A,3802.1488,N,08430.4113,W,0.10,167.59,220914,,,A*75
$GPGGA,230409.200,3802.1488,N,08430.4113,W,1,4,2.85,300.6,M,-33.0,M,,*67
$GPRMC,230409.200,A,3802.1488,N,08430.4113,W,0.11,167.59,220914,,,A*76
$GPGGA,230409.400,3802.1487,N,08430.4114,W,1,4,2.85,300.5,M,-33.0,M,,*6A
$GPRMC,230409.400,A,3802.1487,N,08430.4114,W,0.10,167.59,220914,,,A*79
$GPGGA,230409.600,3802.1487,N,08430.4113,W,1,4,2.85,300.5,M,-33.0,M,,*6F
$GPRMC,230409.600,A,3802.1487,N,08430.4113,W,0.10,167.59,220914,,,A*7C
$GPGGA,230409.800,3802.1487,N,08430.4114,W,1,4,2.85,300.4,M,-33.0,M,,*67
$GPRMC,230409.800,A,3802.1487,N,08430.4114,W,0.10,167.59,220914,,,A*75
$GPGGA,230410.000,3802.1487,N,08430.4114,W,1,4,2.85,300.3,M,-33.0,M,,*60
$GPRMC,230410.000,A,3802.1487,N,08430.4114,W,0.11,167.59,220914,,,A*74
$GPGGA,230410.200,3802.1487,N,08430.4115,W,1,4,2.85,300.1,M,-33.0,M,,*61
$GPRMC,230410.200,A,3802.1487,N,08430.4115,W,0.13,167.59,220914,,,A*75
$GPGGA,230410.400,3802.1487,N,08430.4115,W,1,4,2.85,299.9,M,-33.0,M,,*6E
$GPRMC,230410.400,A,3802.1487,N,08430.4115,W,0.14,167.59,220914,,,A*74
$GPGGA,230410.600,3802.1487,N,08430.4116,W,1,4,2.85,299.7,M,-33.0,M,,*61
$GPRMC,230410.600,A,3802.1487,N,08430.4116,W,0.14,167.59,220914,,,A*75
$GPGGA,230410.800,3802.1488,N,08430.4117,W,1,4,2.85,299.4,M,-33.0,M,,*62
$GPRMC,230410.800,A,3802.1488,N,08430.4117,W,0.15,167.59,220914,,,A*74
$GPGGA,230411.000,3802.1488,N,08430.4117,W,1,4,2.85,299.2,M,-33.0,M,,*6D
$GPRMC,230411.000,A,3802.1488,N,08430.4117,W,0.15,167.59,220914,,,A*7D
$GPGGA,230411.200,3802.1489,N,08430.4118,W,1,4,2.85,299.1,M,-33.0,M,,*62
$GPRMC,230411.200,A,3802.1489,N,08430.4118,W,0.15,167.59,220914,,,A*71
$GPGGA,230411.400,3802.1489,N,08430.4118,W,1,4,2.85,299.0,M,-33.0,M,,*65
$GPRMC,230411.400,A,3802.1489,N,08430.4118,W,0.18,167.59,220914,,,A*7A
$GPGGA,230411.600,3802.1490,N,08430.4118,W,1,4,2.85,298.9,M,-33.0,M,,*67
$GPRMC,230411.600,A,3802.1490,N,08430.4118,W,0.20,167.59,220914,,,A*7B
$GPGGA,230411.800,3802.1490,N,08430.4118,W,1,4,2.85,298.7,M,-33.0,M,,*67
$GPRMC,230411.800,A,3802.1490,N,08430.4118,W,0.21,167.59,220914,,,A*74
$GPGGA,230412.000,3802.1491,N,08430.4119,W,1,4,2.85,298.5,M,-33.0,M,,*6E
$GPRMC,230412.000,A,3802.1491,N,08430.4119,W,0.23,167.59,220914,,,A*7D
$GPGGA,230412.200,3802.1492,N,08430.4119,W,1,4,2.85,298.3,M,-33.0,M,,*69
$GPRMC,230412.200,A,3802.1492,N,08430.4119,W,0.26,167.59,220914,,,A*79
$GPGGA,230412.400,3802.1492,N,08430.4120,W,1,4,2.85,298.1,M,-33.0,M,,*67
$GPRMC,230412.400,A,3802.1492,N,08430.4120,W,0.28,167.59,220914,,,A*7B
$GPGGA,230412.600,3802.1493,N,08430.4121,W,1,4,2.85,297.8,M,-33.0,M,,*63
$GPRMC,230412.600,A,3802.1493,N,08430.4121,W,0.30,167.59,220914,,,A*70
$GPGGA,230412.800,3802.1493,N,08430.4122,W,1,4,2.85,297.6,M,-33.0,M,,*60
$GPRMC,230412.800,A,3802.1493,N,08430.4122,W,0.31,167.59,220914,,,A*7C
$GPGGA,230413.000,3802.1494,N,08430.4122,W,1,4,2.85,297.4,M,-33.0,M,,*6C
$GPRMC,230413.000,A,3802.1494,N,08430.4122,W,0.31,167.59,220914,,,A*72
$GPGGA,230413.200,3802.1494,N,08430.4123,W,1,4,2.85,297.1,M,-33.0,M,,*6A
$GPRMC,230413.200,A,3802.1494,N,08430.4123,W,0.27,167.59,220914,,,A*76
$GPGGA,230413.400,3802.1494,N,08430.4123,W,1,4,2.85,296.9,M,-33.0,M,,*65
$GPRMC,230413.400,A,3802.1494,N,08430.4123,W,0.23,167.59,220914,,,A*74
$GPGGA,230413.600,3802.1494,N,08430.4123,W,1,4,2.85,296.8,M,-33.0,M,,*66
$GPRMC,230413.600,A,3802.1494,N,08430.4123,W,0.17,167.59,220914,,,A*71
$GPGGA,230413.800,3802.1494,N,08430.4123,W,1,4,2.85,296.7,M,-33.0,M,,*67
$GPRMC,230413.800,A,3802.1494,N,08430.4123,W,0.15,167.59,220914,,,A*7D
$GPGGA,230414.000,3802.1494,N,08430.4123,W,1,4,2.85,296.5,M,-33.0,M,,*6A
$GPRMC,230414.000,A,3802.1494,N,08430.4123,W,0.12,167.59,220914,,,A*75
$GPGGA,230414.200,3802.1494,N,08430.4124,W,1,4,2.85,296.4,M,-33.0,M,,*6E
$GPRMC,230414.200,A,3802.1494,N,08430.4124,W,0.08,167.59,220914,,,A*7B
$GPGGA,230414.400,3802.1493,N,08430.4124,W,1,4,2.85,296.3,M,-33.0,M,,*68
$GPRMC,230414.400,A,3802.1493,N,08430.4124,W,0.06,167.59,220914,,,A*74
$GPGGA,230414.600,3802.1493,N,08430.4124,W,1,4,2.85,296.2,M,-33.0,M,,*6B
$GPRMC,230414.600,A,3802.1493,N,08430.4124,W,0.08,167.59,220914,,,A*78
$GPGGA,230414.800,3802.1493,N,08430.4125,W,1,4,2.85,296.1,M,-33.0,M,,*67
$GPRMC,230414.800,A,3802.1493,N,08430.4125,W,0.08,167.59,220914,,,A*77
$GPGGA,230415.000,3802.1492,N,08430.4125,W,1,4,2.85,296.0,M,-33.0,M,,*6E
$GPRMC,230415.000,A,3802.1492,N,08430.4125,W,0.08,167.59,220914,,,A*7F
$GPGGA,230415.200,3802.1492,N,08430.4125,W,1,4,2.85,296.0,M,-33.0,M,,*6C
$GPRMC,230415.200,A,3802.1492,N,08430.4125,W,0.08,167.59,220914,,,A*7D
$GPGGA,230415.400,3802.1492,N,08430.4125,W,1,4,2.85,296.0,M,-33.0,M,,*6A
$GPRMC,230415.400,A,3802.1492,N,08430.4125,W,0.06,167.59,220914,,,A*75
$GPGGA,230415.600,3802.1492,N,08430.4125,W,1,4,2.85,296.0,M,-33.0,M,,*68
$GPRMC,230415.600,A,3802.1492,N,08430.4125,W,0.02,167.59,220914,,,A*73
$GPGGA,230415.800,3802.1492,N,08430.4124,W,1,4,2.85,296.0,M,-33.0,M,,*67
$GPRMC,230415.800,A,3802.1492,N,08430.4124,W,0.01,167.59,220914,,,A*7F
$GPGGA,230416.000,3802.1492,N,08430.4124,W,1,4,2.85,296.0,M,-33.0,M,,*6C
$GPRMC,230416.000,A,3802.1492,N,08430.4124,W,0.03,167.59,220914,,,A*76
$GPGGA,230416.200,3802.1492,N,08430.4124,W,1,4,2.86,296.0,M,-33.0,M,,*6D
$GPRMC,230416.200,A,3802.1492,N,08430.4124,W,0.06,167.59,220914,,,A*71
$GPGGA,230416.400,3802.1492,N,08430.4124,W,1,4,2.85,296.0,M,-33.0,M,,*68
$GPRMC,230416.400,A,3802.1492,N,08430.4124,W,0.08,167.59,220914,,,A*79
$GPGGA,230416.600,3802.1493,N,08430.4124,W,1,4,2.85,296.0,M,-33.0,M,,*6B
$GPRMC,230416.600,A,3802.1493,N,08430.4124,W,0.12,167.59,220914,,,A*71
$GPGGA,230416.800,3802.1493,N,08430.4124,W,1,4,2.85,295.9,M,-33.0,M,,*6F
$GPRMC,230416.800,A,3802.1493,N,08430.4124,W,0.13,167.59,220914,,,A*7E
$GPGGA,230417.000,3802.1493,N,08430.4125,W,1,4,2.85,295.9,M,-33.0,M,,*67
$GPRMC,230417.000,A,3802.1493,N,08430.4125,W,0.13,167.59,220914,,,A*76
$GPGGA,230417.200,3802.1493,N,08430.4125,W,1,4,2.85,295.8,M,-33.0,M,,*64
$GPRMC,230417.200,A,3802.1493,N,08430.4125,W,0.12,167.59,220914,,,A*75
$GPGGA,230417.400,3802.1493,N,08430.4125,W,1,4,2.85,295.7,M,-33.0,M,,*6D
$GPRMC,230417.400,A,3802.1493,N,08430.4125,W,0.15,167.59,220914,,,A*74
$GPGGA,230417.600,3802.1493,N,08430.4125,W,1,4,2.85,295.7,M,-33.0,M,,*6F
$GPRMC,230417.600,A,3802.1493,N,08430.4125,W,0.16,167.59,220914,,,A*75
$GPGGA,230417.800,3802.1493,N,08430.4125,W,1,4,2.85,295.7,M,-33.0,M,,*61
$GPRMC,230417.800,A,3802.1493,N,08430.4125,W,0.16,167.59,220914,,,A*7B
$GPGGA,230418.000,3802.1493,N,08430.4125,W,1,4,2.85,295.6,M,-33.0,M,,*67
$GPRMC,230418.000,A,3802.1493,N,08430.4125,W,0.17,167.59,220914,,,A*7D
$GPGGA,230418.200,3802.1493,N,08430.4125,W,1,4,2.85,295.6,M,-33.0,M,,*65
$GPRMC,230418.200,A,3802.1493,N,08430.4125,W,0.16,167.59,220914,,,A*7E
$GPGGA,230418.400,3802.1493,N,08430.4125,W,1,4,2.85,295.6,M,-33.0,M,,*63
$GPRMC,230418.400,A,3802.1493,N,08430.4125,W,0.15,167.59,220914,,,A*7B
$GPGGA,230418.600,3802.1493,N,08430.4124,W,1,4,2.85,295.5,M,-33.0,M,,*63
$GPRMC,230418.600,A,3802.1493,N,08430.4124,W,0.15,167.59,220914,,,A*78
$GPGGA,230418.800,3802.1493,N,08430.4124,W,1,4,2.85,295.5,M,-33.0,M,,*6D
$GPRMC,230418.800,A,3802.1493,N,08430.4124,W,0.15,167.59,220914,,,A*76
$GPGGA,230419.000,3802.1493,N,08430.4124,W,1,4,2.86,295.5,M,-33.0,M,,*67
$GPRMC,230419.000,A,3802.1493,N,08430.4124,W,0.15,167.59,220914,,,A*7F
$GPGGA,230419.200,3802.1493,N,08430.4124,W,1,4,2.85,295.5,M,-33.0,M,,*66
$GPRMC,230419.200,A,3802.1493,N,08430.4124,W,0.15,167.59,220914,,,A*7D
$GPGGA,230419.400,3802.1493,N,08430.4124,W,1,4,2.85,295.5,M,-33.0,M,,*60
$GPRMC,230419.400,A,3802.1493,N,08430.4124,W,0.14,167.59,220914,,,A*7A
$GPGGA,230419.600,3802.1493,N,08430.4124,W,1,4,2.85,295.6,M,-33.0,M,,*61
$GPRMC,230419.600,A,3802.1493,N,08430.4124,W,0.14,167.59,220914,,,A*78
$GPGGA,230419.800,3802.1493,N,08430.4123,W,1,4,2.85,295.6,M,-33.0,M,,*68
$GPRMC,230419.800,A,3802.1493,N,08430.4123,W,0.14,167.59,220914,,,A*71
$GPGGA,230420.000,3802.1493,N,08430.4123,W,1,4,2.85,295.7,M,-33.0,M,,*6B
$GPRMC,230420.000,A,3802.1493,N,08430.4123,W,0.14,167.59,220914,,,A*73
$GPGGA,230420.200,3802.1493,N,08430.4123,W,1,4,2.85,295.8,M,-33.0,M,,*66
$GPRMC,230420.200,A,3802.1493,N,08430.4123,W,0.15,167.59,220914,,,A*70
$GPGGA,230420.400,3802.1494,N,08430.4123,W,1,4,3.51,295.9,M,-33.0,M,,*6E
$GPRMC,230420.400,A,3802.1494,N,08430.4123,W,0.17,167.59,220914,,,A*73
$GPGGA,230420.600,3802.1494,N,08430.4123,W,1,4,3.51,295.9,M,-33.0,M,,*6C
$GPRMC,230420.600,A,3802.1494,N,08430.4123,W,0.20,167.59,220914,,,A*75
$GPGGA,230420.800,3802.1494,N,08430.4123,W,1,4,3.51,296.0,M,-33.0,M,,*68
$GPRMC,230420.800,A,3802.1494,N,08430.4123,W,0.20,167.59,220914,,,A*7B
$GPGGA,230421.000,3802.1495,N,08430.4124,W,1,4,3.51,296.1,M,-33.0,M,,*66
$GPRMC,230421.000,A,3802.1495,N,08430.4124,W,0.23,167.59,220914,,,A*77
$GPGGA,230421.200,3802.1495,N,08430.4124,W,1,4,3.51,296.1,M,-33.0,M,,*64
$GPRMC,230421.200,A,3802.1495,N,08430.4124,W,0.27,167.59,220914,,,A*71
$GPGGA,230421.400,3802.1495,N,08430.4123,W,1,4,2.85,296.3,M,-33.0,M,,*6F
$GPRMC,230421.400,A,3802.1495,N,08430.4123,W,0.29,167.59,220914,,,A*7E
$GPGGA,230421.600,3802.1495,N,08430.4123,W,1,4,2.86,296.5,M,-33.0,M,,*68
$GPRMC,230421.600,A,3802.1495,N,08430.4123,W,0.29,167.59,220914,,,A*7C
$GPGGA,230421.800,3802.1495,N,08430.4123,W,1,4,2.85,296.7,M,-33.0,M,,*67
$GPRMC,230421.800,A,3802.1495,N,08430.4123,W,0.29,167.59,220914,,,A*72
$GPGGA,230422.000,3802.1495,N,08430.4123,W,1,4,2.85,296.8,M,-33.0,M,,*63
$GPRMC,230422.000,A,3802.1495,N,08430.4123,W,0.29,167.59,220914,,,A*79
$GPGGA,230422.200,3802.1495,N,08430.4122,W,1,4,2.85,297.0,M,-33.0,M,,*69
$GPRMC,230422.200,A,3802.1495,N,08430.4122,W,0.30,167.59,220914,,,A*72
$GPGGA,230422.400,3802.1495,N,08430.4122,W,1,4,2.85,297.1,M,-33.0,M,,*6E
$GPRMC,230422.400,A,3802.1495,N,08430.4122,W,0.30,167.59,220914,,,A*74
$GPGGA,230422.600,3802.1495,N,08430.4122,W,1,4,2.85,297.2,M,-33.0,M,,*6F
$GPRMC,230422.600,A,3802.1495,N,08430.4122,W,0.28,167.59,220914,,,A*7F
$GPGGA,230422.800,3802.1495,N,08430.4122,W,1,4,2.85,297.2,M,-33.0,M,,*61
$GPRMC,230422.800,A,3802.1495,N,08430.4122,W,0.27,167.59,220914,,,A*7E
$GPGGA,230423.000,3802.1495,N,08430.4122,W,1,4,2.85,297.2,M,-33.0,M,,*68
$GPRMC,230423.000,A,3802.1495,N,08430.4122,W,0.28,167.59,220914,,,A*78
$GPGGA,230423.200,3802.1496,N,08430.4122,W,1,4,2.85,297.2,M,-33.0,M,,*69
$GPRMC,230423.200,A,3802.1496,N,08430.4122,W,0.30,167.59,220914,,,A*70
$GPGGA,230423.400,3802.1497,N,08430.4122,W,1,4,2.86,297.2,M,-33.0,M,,*6D
$GPRMC,230423.400,A,3802.1497,N,08430.4122,W,0.33,167.59,220914,,,A*74
$GPGGA,230423.600,3802.1498,N,08430.4122,W,1,4,2.85,297.3,M,-33.0,M,,*62
$GPRMC,230423.600,A,3802.1498,N,08430.4122,W,0.38,167.59,220914,,,A*72
$GPGGA,230423.800,3802.1498,N,08430.4122,W,1,4,2.85,297.3,M,-33.0,M,,*6C
$GPRMC,230423.800,A,3802.1498,N,08430.4122,W,0.38,167.59,220914,,,A*7C
$GPGGA,230424.000,3802.1499,N,08430.4122,W,1,4,2.85,297.3,M,-33.0,M,,*62
$GPRMC,230424.000,A,3802.1499,N,08430.4122,W,0.39,167.59,220914,,,A*73
$GPGGA,230424.200,3802.1499,N,08430.4122,W,1,4,2.85,297.4,M,-33.0,M,,*67
$GPRMC,230424.200,A,3802.1499,N,08430.4122,W,0.40,167.59,220914,,,A*7F
$GPGGA,230424.400,3802.1500,N,08430.4122,W,1,4,2.86,297.4,M,-33.0,M,,*63
$GPRMC,230424.400,A,3802.1500,N,08430.4122,W,0.42,167.59,220914,,,A*7A
$GPGGA,230424.600,3802.1500,N,08430.4121,W,1,4,2.85,297.4,M,-33.0,M,,*61
$GPRMC,230424.600,A,3802.1500,N,08430.4121,W,0.43,167.59,220914,,,A*7A
$GPGGA,230424.800,3802.1501,N,08430.4121,W,1,4,2.85,297.5,M,-33.0,M,,*6F
$GPRMC,230424.800,A,3802.1501,N,08430.4121,W,0.44,167.59,220914,,,A*72
$GPGGA,230425.000,3802.1501,N,08430.4121,W,1,4,2.86,297.5,M,-33.0,M,,*65
$GPRMC,230425.000,A,3802.1501,N,08430.4121,W,0.43,167.59,220914,,,A*7C
$GPGGA,230425.200,3802.1502,N,08430.4121,W,1,4,2.85,297.6,M,-33.0,M,,*64
$GPRMC,230425.200,A,3802.1502,N,08430.4121,W,0.41,167.59,220914,,,A*7F
$GPGGA,230425.400,3802.1502,N,08430.4121,W,1,4,2.85,297.6,M,-33.0,M,,*62
$GPRMC,230425.400,A,3802.1502,N,08430.4121,W,0.38,167.59,220914,,,A*77
$GPGGA,230425.600,3802.1502,N,08430.4121,W,1,4,2.85,297.6,M,-33.0,M,,*60
$GPRMC,230425.600,A,3802.1502,N,08430.4121,W,0.35,167.59,220914,,,A*78
$GPGGA,230425.800,3802.1502,N,08430.4121,W,1,4,2.85,297.7,M,-33.0,M,,*6F
$GPRMC,230425.800,A,3802.1502,N,08430.4121,W,0.34,167.59,220914,,,A*77
$GPGGA,230426.000,3802.1502,N,08430.4121,W,1,4,2.85,297.7,M,-33.0,M,,*64
$GPRMC,230426.000,A,3802.1502,N,08430.4121,W,0.29,167.59,220914,,,A*70
$GPGGA,230426.200,3802.1502,N,08430.4121,W,1,4,2.85,297.8,M,-33.0,M,,*69
$GPRMC,230426.200,A,3802.1502,N,08430.4121,W,0.26,167.59,220914,,,A*7D
$GPGGA,230426.400,3802.1502,N,08430.4121,W,1,4,2.85,297.8,M,-33.0,M,,*6F
$GPRMC,230426.400,A,3802.1502,N,08430.4121,W,0.24,167.59,220914,,,A*79
$GPGGA,230426.600,3802.1501,N,08430.4121,W,1,4,2.85,297.8,M,-33.0,M,,*6E
$GPRMC,230426.600,A,3802.1501,N,08430.4121,W,0.21,167.59,220914,,,A*7D
$GPGGA,230426.800,3802.1501,N,08430.4121,W,1,4,2.85,297.8,M,-33.0,M,,*60
$GPRMC,230426.800,A,3802.1501,N,08430.4121,W,0.20,167.59,220914,,,A*72
$GPGGA,230427.000,3802.1502,N,08430.4121,W,1,4,2.86,297.8,M,-33.0,M,,*69
$GPRMC,230427.000,A,3802.1502,N,08430.4121,W,0.19,167.59,220914,,,A*72
$GPGGA,230427.200,3802.1502,N,08430.4121,W,1,4,2.85,297.8,M,-33.0,M,,*68
$GPRMC,230427.200,A,3802.1502,N,08430.4121,W,0.16,167.59,220914,,,A*7F
$GPGGA,230427.400,3802.1502,N,08430.4121,W,1,4,2.85,297.8,M,-33.0,M,,*6E
$GPRMC,230427.400,A,3802.1502,N,08430.4121,W,0.15,167.59,220914,,,A*7A
$GPGGA,230427.600,3802.1502,N,08430.4122,W,1,4,2.86,297.8,M,-33.0,M,,*6C
$GPRMC,230427.600,A,3802.1502,N,08430.4122,W,0.15,167.59,220914,,,A*7B
$GPGGA,230427.800,3802.1502,N,08430.4122,W,1,4,2.85,297.8,M,-33.0,M,,*61
$GPRMC,230427.800,A,3802.1502,N,08430.4122,W,0.15,167.59,220914,,,A*75
$GPGGA,230428.000,3802.1502,N,08430.4122,W,1,4,2.85,297.8,M,-33.0,M,,*66
$GPRMC,230428.000,A,3802.1502,N,08430.4122,W,0.15,167.59,220914,,,A*72
$GPGGA,230428.200,3802.1502,N,08430.4122,W,1,4,2.85,297.9,M,-33.0,M,,*65
$GPRMC,230428.200,A,3802.1502,N,08430.4122,W,0.14,167.59,220914,,,A*71
$GPGGA,230428.400,3802.1502,N,08430.4122,W,1,4,2.86,297.9,M,-33.0,M,,*60
$GPRMC,230428.400,A,3802.1502,N,08430.4122,W,0.13,167.59,220914,,,A*70
$GPGGA,230428.600,3802.1502,N,08430.4122,W,1,4,2.86,297.9,M,-33.0,M,,*62
$GPRMC,230428.600,A,3802.1502,N,08430.4122,W,0.11,167.59,220914,,,A*70
$GPGGA,230428.800,3802.1502,N,08430.4122,W,1,4,2.86,297.9,M,-33.0,M,,*6C
$GPRMC,230428.800,A,3802.1502,N,08430.4122,W,0.10,167.59,220914,,,A*7F
$GPGGA,230429.000,3802.1502,N,08430.4122,W,1,4,2.86,297.8,M,-33.0,M,,*64
$GPRMC,230429.000,A,3802.1502,N,08430.4122,W,0.10,167.59,220914,,,A*76
$GPGGA,230429.200,3802.1502,N,08430.4122,W,1,4,2.86,297.8,M,-33.0,M,,*66
$GPRMC,230429.200,A,3802.1502,N,08430.4122,W,0.11,167.59,220914,,,A*75
$GPGGA,230429.400,3802.1502,N,08430.4123,W,1,4,2.86,297.8,M,-33.0,M,,*61
$GPRMC,230429.400,A,3802.1502,N,08430.4123,W,0.12,167.59,220914,,,A*71
$GPGGA,230429.600,3802.1502,N,08430.4123,W,1,4,2.85,297.8,M,-33.0,M,,*60
$GPRMC,230429.600,A,3802.1502,N,08430.4123,W,0.13,167.59,220914,,,A*72
$GPGGA,230429.800,3802.1502,N,08430.4123,W,1,4,2.86,297.7,M,-33.0,M,,*62
$GPRMC,230429.800,A,3802.1502,N,08430.4123,W,0.13,167.59,220914,,,A*7C
$GPGGA,230430.000,3802.1502,N,08430.4123,W,1,4,2.85,297.7,M,-33.0,M,,*61
$GPRMC,230430.000,A,3802.1502,N,08430.4123,W,0.12,167.59,220914,,,A*7D
$GPGGA,230430.200,3802.1502,N,08430.4123,W,1,4,2.85,297.7,M,-33.0,M,,*63
$GPRMC,230430.200,A,3802.1502,N,08430.4123,W,0.11,167.59,220914,,,A*7C
$GPGGA,230430.400,3802.1502,N,08430.4123,W,1,4,2.86,297.8,M,-33.0,M,,*69
$GPRMC,230430.400,A,3802.1502,N,08430.4123,W,0.10,167.59,220914,,,A*7B
$GPGGA,230430.600,3802.1501,N,08430.4123,W,1,4,2.86,297.7,M,-33.0,M,,*67
$GPRMC,230430.600,A,3802.1501,N,08430.4123,W,0.10,167.59,220914,,,A*7A
$GPGGA,230430.800,3802.1501,N,08430.4123,W,1,4,2.85,297.7,M,-33.0,M,,*6A
$GPRMC,230430.800,A,3802.1501,N,08430.4123,W,0.10,167.59,220914,,,A*74
$GPGGA,230431.000,3802.1501,N,08430.4124,W,1,4,2.85,297.7,M,-33.0,M,,*64
$GPRMC,230431.000,A,3802.1501,N,08430.4124,W,0.09,167.59,220914,,,A*72
$GPGGA,230431.200,3802.1501,N,08430.4124,W,1,4,2.86,297.7,M,-33.0,M,,*65
$GPRMC,230431.200,A,3802.1501,N,08430.4124,W,0.10,167.59,220914,,,A*78
$GPGGA,230431.400,3802.1501,N,08430.4124,W,1,4,2.85,297.7,M,-33.0,M,,*60
$GPRMC,230431.400,A,3802.1501,N,08430.4124,W,0.11,167.59,220914,,,A*7F
$GPGGA,230431.600,3802.1501,N,08430.4124,W,1,4,2.86,297.7,M,-33.0,M,,*61
$GPRMC,230431.600,A,3802.1501,N,08430.4124,W,0.11,167.59,220914,,,A*7D
$GPGGA,230431.800,3802.1501,N,08430.4125,W,1,4,2.85,297.7,M,-33.0,M,,*6D
$GPRMC,230431.800,A,3802.1501,N,08430.4125,W,0.11,167.59,220914,,,A*72
$GPGGA,230432.000,3802.1501,N,08430.4125,W,1,4,2.85,297.7,M,-33.0,M,,*66
$GPRMC,230432.000,A,3802.1501,N,08430.4125,W,0.10,167.59,220914,,,A*78
$GPGGA,230432.200,3802.1502,N,08430.4125,W,1,4,2.86,297.7,M,-33.0,M,,*64
$GPRMC,230432.200,A,3802.1502,N,08430.4125,W,0.08,167.59,220914,,,A*70
$GPGGA,230432.400,3802.1502,N,08430.4125,W,1,4,2.85,297.7,M,-33.0,M,,*61
$GPRMC,230432.400,A,3802.1502,N,08430.4125,W,0.09,167.59,220914,,,A*77
$GPGGA,230432.600,3802.1502,N,08430.4125,W,1,4,2.85,297.8,M,-33.0,M,,*6C
$GPRMC,230432.600,A,3802.1502,N,08430.4125,W,0.08,167.59,220914,,,A*74
$GPGGA,230432.800,3802.1502,N,08430.4125,W,1,4,2.86,297.7,M,-33.0,M,,*6E
$GPRMC,230432.800,A,3802.1502,N,08430.4125,W,0.08,167.59,220914,,,A*7A
$GPGGA,230433.000,3802.1502,N,08430.4125,W,1,4,2.86,297.7,M,-33.0,M,,*67
$GPRMC,230433.000,A,3802.1502,N,08430.4125,W,0.07,167.59,220914,,,A*7C
$GPGGA,230433.200,3802.1502,N,08430.4125,W,1,4,2.85,297.7,M,-33.0,M,,*66
$GPRMC,230433.200,A,3802.1502,N,08430.4125,W,0.07,167.59,220914,,,A*7E
$GPGGA,230433.400,3802.1503,N,08430.4125,W,1,4,3.51,297.7,M,-33.0,M,,*69
$GPRMC,230433.400,A,3802.1503,N,08430.4125,W,0.07,167.59,220914,,,A*79
$GPGGA,230433.600,3802.1503,N,08430.4125,W,1,4,3.52,297.7,M,-33.0,M,,*68
$GPRMC,230433.600,A,3802.1503,N,08430.4125,W,0.08,167.59,220914,,,A*74
$GPGGA,230433.800,3802.1503,N,08430.4125,W,1,4,3.52,297.7,M,-33.0,M,,*66
$GPRMC,230433.800,A,3802.1503,N,08430.4125,W,0.09,167.59,220914,,,A*7B
$GPGGA,230434.000,3802.1503,N,08430.4125,W,1,4,3.52,297.7,M,-33.0,M,,*69
$GPRMC,230434.000,A,3802.1503,N,08430.4125,W,0.10,167.59,220914,,,A*7C
$GPGGA,230434.200,3802.1504,N,08430.4125,W,1,4,3.52,297.7,M,-33.0,M,,*6C
$GPRMC,230434.200,A,3802.1504,N,08430.4125,W,0.11,167.59,220914,,,A*78
$GPGGA,230434.400,3802.1504,N,08430.4125,W,1,4,3.52,297.7,M,-33.0,M,,*6A
$GPRMC,230434.400,A,3802.1504,N,08430.4125,W,0.11,167.59,220914,,,A*7E
$GPGGA,230434.600,3802.1504,N,08430.4125,W,1,4,3.52,297.8,M,-33.0,M,,*67
$GPRMC,230434.600,A,3802.1504,N,08430.4125,W,0.13,167.59,220914,,,A*7E
$GPGGA,230434.800,3802.1505,N,08430.4125,W,1,4,3.52,297.8,M,-33.0,M,,*68
$GPRMC,230434.800,A,3802.1505,N,08430.4125,W,0.14,167.59,220914,,,A*76
$GPGGA,230435.000,3802.1505,N,08430.4125,W,1,4,3.52,297.8,M,-33.0,M,,*61
$GPRMC,230435.000,A,3802.1505,N,08430.4125,W,0.17,167.59,220914,,,A*7C
$GPGGA,230435.200,3802.1506,N,08430.4125,W,1,4,3.52,297.8,M,-33.0,M,,*60
$GPRMC,230435.200,A,3802.1506,N,08430.4125,W,0.20,167.59,220914,,,A*79
$GPGGA,230435.400,3802.1506,N,08430.4125,W,1,4,3.52,297.8,M,-33.0,M,,*66
$GPRMC,230435.400,A,3802.1506,N,08430.4125,W,0.22,167.59,220914,,,A*7D
$GPGGA,230435.600,3802.1506,N,08430.4125,W,1,4,3.52,297.8,M,-33.0,M,,*64
$GPRMC,230435.600,A,3802.1506,N,08430.4125,W,0.26,167.59,220914,,,A*7B
$GPGGA,230435.800,3802.1506,N,08430.4124,W,1,4,3.52,297.8,M,-33.0,M,,*6B
$GPRMC,230435.800,A,3802.1506,N,08430.4124,W,0.26,167.59,220914,,,A*74
$GPGGA,230436.000,3802.1506,N,08430.4124,W,1,4,3.52,297.8,M,-33.0,M,,*60
$GPRMC,230436.000,A,3802.1506,N,08430.4124,W,0.26,167.59,220914,,,A*7F
$GPGGA,230436.200,3802.1507,N,08430.4124,W,1,4,3.52,297.8,M,-33.0,M,,*63
$GPRMC,230436.200,A,3802.1507,N,08430.4124,W,0.24,167.59,220914,,,A*7E
$GPGGA,230436.400,3802.1507,N,08430.4124,W,1,4,3.52,297.8,M,-33.0,M,,*65
$GPRMC,230436.400,A,3802.1507,N,08430.4124,W,0.23,167.59,220914,,,A*7F
$GPGGA,230436.600,3802.1507,N,08430.4124,W,1,4,3.52,297.8,M,-33.0,M,,*67
$GPRMC,230436.600,A,3802.1507,N,08430.4124,W,0.23,167.59,220914,,,A*7D
$GPGGA,230436.800,3802.1507,N,08430.4124,W,1,4,3.52,297.8,M,-33.0,M,,*69
$GPRMC,230436.800,A,3802.1507,N,08430.4124,W,0.22,167.59,220914,,,A*72
$GPGGA,230437.000,3802.1507,N,08430.4124,W,1,4,3.52,297.8,M,-33.0,M,,*60
$GPRMC,230437.000,A,3802.1507,N,08430.4124,W,0.21,167.59,220914,,,A*78
$GPGGA,230437.200,3802.1507,N,08430.4125,W,1,4,2.85,297.8,M,-33.0,M,,*68
$GPRMC,230437.200,A,3802.1507,N,08430.4125,W,0.19,167.59,220914,,,A*70
$GPGGA,230437.400,3802.1507,N,08430.4125,W,1,4,2.85,297.8,M,-33.0,M,,*6E
$GPRMC,230437.400,A,3802.1507,N,08430.4125,W,0.18,167.59,220914,,,A*77
$GPGGA,230437.600,3802.1507,N,08430.4125,W,1,4,2.86,297.8,M,-33.0,M,,*6F
$GPRMC,230437.600,A,3802.1507,N,08430.4125,W,0.17,167.59,220914,,,A*7A
$GPGGA,230437.800,3802.1507,N,08430.4125,W,1,4,2.86,297.8,M,-33.0,M,,*61
$GPRMC,230437.800,A,3802.1507,N,08430.4125,W,0.17,167.59,220914,,,A*74
$GPGGA,230438.000,3802.1507,N,08430.4125,W,1,4,2.85,297.8,M,-33.0,M,,*65
$GPRMC,230438.000,A,3802.1507,N,08430.4125,W,0.17,167.59,220914,,,A*73
$GPGGA,230438.200,3802.1507,N,08430.4125,W,1,4,2.86,297.8,M,-33.0,M,,*64
$GPRMC,230438.200,A,3802.1507,N,08430.4125,W,0.17,167.59,220914,,,A*71
$GPGGA,230438.400,3802.1507,N,08430.4125,W,1,4,2.86,297.8,M,-33.0,M,,*62
$GPRMC,230438.400,A,3802.1507,N,08430.4125,W,0.17,167.59,220914,,,A*77
$GPGGA,230438.600,3802.1507,N,08430.4125,W,1,4,2.85,297.8,M,-33.0,M,,*63
$GPRMC,230438.600,A,3802.1507,N,08430.4125,W,0.15,167.59,220914,,,A*77
$GPGGA,230438.800,3802.1507,N,08430.4125,W,1,4,2.86,297.8,M,-33.0,M,,*6E
$GPRMC,230438.800,A,3802.1507,N,08430.4125,W,0.15,167.59,220914,,,A*79
$GPGGA,230439.000,3802.1507,N,08430.4125,W,1,4,2.86,297.8,M,-33.0,M,,*67
$GPRMC,230439.000,A,3802.1507,N,08430.4125,W,0.13,167.59,220914,,,A*76
$GPGGA,230439.200,3802.1507,N,08430.4126,W,1,4,2.86,297.8,M,-33.0,M,,*66
$GPRMC,230439.200,A,3802.1507,N,08430.4126,W,0.11,167.59,220914,,,A*75
$GPGGA,230439.400,3802.1507,N,08430.4126,W,1,4,2.86,297.8,M,-33.0,M,,*60
$GPRMC,230439.400,A,3802.1507,N,08430.4126,W,0.10,167.59,220914,,,A*72
$GPGGA,230439.600,3802.1507,N,08430.4126,W,1,4,2.86,297.8,M,-33.0,M,,*62
$GPRMC,230439.600,A,3802.1507,N,08430.4126,W,0.08,167.59,220914,,,A*79
$GPGGA,230439.800,3802.1507,N,08430.4126,W,1,4,2.86,297.8,M,-33.0,M,,*6C
$GPRMC,230439.800,A,3802.1507,N,08430.4126,W,0.06,167.59,220914,,,A*79
$GPGGA,230440.000,3802.1507,N,08430.4126,W,1,4,2.86,297.8,M,-33.0,M,,*6A
$GPRMC,230440.000,A,3802.1507,N,08430.4126,W,0.04,167.59,220914,,,A*7D
$GPGGA,230440.200,3802.1507,N,08430.4126,W,1,4,2.86,297.8,M,-33.0,M,,*68
$GPRMC,230440.200,A,3802.1507,N,08430.4126,W,0.01,167.59,220914,,,A*7A
$GPGGA,230440.400,3802.1507,N,08430.4126,W,1,4,2.86,297.8,M,-33.0,M,,*6E
$GPRMC,230440.400,A,3802.1507,N,08430.4126,W,0.02,167.59,220914,,,A*7F
$GPGGA,230440.600,3802.1507,N,08430.4126,W,1,4,2.86,297.8,M,-33.0,M,,*6C
$GPRMC,230440.600,A,3802.1507,N,08430.4126,W,0.07,167.59,220914,,,A*78
$GPGGA,230440.800,3802.1507,N,08430.4126,W,1,4,2.85,297.8,M,-33.0,M,,*61
$GPRMC,230440.800,A,3802.1507,N,08430.4126,W,0.08,167.59,220914,,,A*79
$GPGGA,230441.000,3802.1507,N,08430.4126,W,1,4,2.85,297.8,M,-33.0,M,,*68
$GPRMC,230441.000,A,3802.1507,N,08430.4126,W,0.09,167.59,220914,,,A*71
$GPGGA,230441.200,3802.1507,N,08430.4126,W,1,4,2.86,297.8,M,-33.0,M,,*69
$GPRMC,230441.200,A,3802.1507,N,08430.4126,W,0.11,167.59,220914,,,A*7A
$GPGGA,230441.400,3802.1507,N,08430.4126,W,1,4,2.86,297.8,M,-33.0,M,,*6F
$GPRMC,230441.400,A,3802.1507,N,08430.4126,W,0.13,167.59,220914,,,A*7E
$GPGGA,230441.600,3802.1507,N,08430.4125,W,1,4,2.86,297.8,M,-33.0,M,,*6E
$GPRMC,230441.600,A,3802.1507,N,08430.4125,W,0.15,167.59,220914,,,A*79
$GPGGA,230441.800,3802.1507,N,08430.4125,W,1,4,2.86,297.8,M,-33.0,M,,*60
$GPRMC,230441.800,A,3802.1507,N,08430.4125,W,0.16,167.59,220914,,,A*74
$GPGGA,230442.000,3802.1507,N,08430.4125,W,1,4,2.86,297.8,M,-33.0,M,,*6B
$GPRMC,230442.000,A,3802.1507,N,08430.4125,W,0.17,167.59,220914,,,A*7E
$GPGGA,230442.200,3802.1507,N,08430.4125,W,1,4,2.86,297.8,M,-33.0,M,,*69
$GPRMC,230442.200,A,3802.1507,N,08430.4125,W,0.18,167.59,220914,,,A*73
$GPGGA,230442.400,3802.1507,N,08430.4125,W,1,4,2.86,297.8,M,-33.0,M,,*6F
$GPRMC,230442.400,A,3802.1507,N,08430.4125,W,0.19,167.59,220914,,,A*74
$GPGGA,230442.600,3802.1507,N,08430.4125,W,1,4,2.86,297.8,M,-33.0,M,,*6D
$GPRMC,230442.600,A,3802.1507,N,08430.4125,W,0.18,167.59,220914,,,A*77
$GPGGA,230442.800,3802.1507,N,08430.4125,W,1,4,2.86,297.8,M,-33.0,M,,*63
$GPRMC,230442.800,A,3802.1507,N,08430.4125,W,0.17,167.59,220914,,,A*76
$GPGGA,230443.000,3802.1507,N,08430.4125,W,1,4,2.86,297.8,M,-33.0,M,,*6A
$GPRMC,230443.000,A,3802.1507,N,08430.4125,W,0.16,167.59,220914,,,A*7E
$GPGGA,230443.200,3802.1507,N,08430.4125,W,1,4,2.85,297.8,M,-33.0,M,,*6B
$GPRMC,230443.200,A,3802.1507,N,08430.4125,W,0.15,167.59,220914,,,A*7F
$GPGGA,230443.400,3802.1507,N,08430.4124,W,1,4,2.86,297.8,M,-33.0,M,,*6F
$GPRMC,230443.400,A,3802.1507,N,08430.4124,W,0.13,167.59,220914,,,A*7E
$GPGGA,230443.600,3802.1507,N,08430.4124,W,1,4,2.86,297.8,M,-33.0,M,,*6D
$GPRMC,230443.600,A,3802.1507,N,08430.4124,W,0.10,167.59,220914,,,A*7F
$GPGGA,230443.800,3802.1507,N,08430.4124,W,1,4,2.86,297.8,M,-33.0,M,,*63
$GPRMC,230443.800,A,3802.1507,N,08430.4124,W,0.09,167.59,220914,,,A*79
$GPGGA,230444.000,3802.1507,N,08430.4124,W,1,4,2.86,297.8,M,-33.0,M,,*6C
$GPRMC,230444.000,A,3802.1507,N,08430.4124,W,0.09,167.59,220914,,,A*76
$GPGGA,230444.200,3802.1507,N,08430.4124,W,1,4,2.86,297.8,M,-33.0,M,,*6E
$GPRMC,230444.200,A,3802.1507,N,08430.4124,W,0.09,167.59,220914,,,A*74
$GPGGA,230444.400,3802.1507,N,08430.4124,W,1,4,2.86,297.8,M,-33.0,M,,*68
$GPRMC,230444.400,A,3802.1507,N,08430.4124,W,0.11,167.59,220914,,,A*7B
$GPGGA,230444.600,3802.1507,N,08430.4124,W,1,4,2.86,297.8,M,-33.0,M,,*6A
$GPRMC,230444.600,A,3802.1507,N,08430.4124,W,0.13,167.59,220914,,,A*7B
$GPGGA,230444.800,3802.1507,N,08430.4124,W,1,4,2.86,297.8,M,-33.0,M,,*64
$GPRMC,230444.800,A,3802.1507,N,08430.4124,W,0.15,167.59,220914,,,A*73
$GPGGA,230445.000,3802.1507,N,08430.4124,W,1,4,2.86,297.8,M,-33.0,M,,*6D
$GPRMC,230445.000,A,3802.1507,N,08430.4124,W,0.17,167.59,220914,,,A*78
$GPGGA,230445.200,3802.1507,N,08430.4124,W,1,4,2.86,297.8,M,-33.0,M,,*6F
$GPRMC,230445.200,A,3802.1507,N,08430.4124,W,0.20,167.59,220914,,,A*7E
$GPGGA,230445.400,3802.1506,N,08430.4124,W,1,4,2.86,297.8,M,-33.0,M,,*68
$GPRMC,230445.400,A,3802.1506,N,08430.4124,W,0.22,167.59,220914,,,A*7B
$GPGGA,230445.600,3802.1506,N,08430.4124,W,1,4,2.86,297.8,M,-33.0,M,,*6A
$GPRMC,230445.600,A,3802.1506,N,08430.4124,W,0.23,167.59,220914,,,A*78
$GPGGA,230445.800,3802.1506,N,08430.4124,W,1,4,2.86,297.8,M,-33.0,M,,*64
$GPRMC,230445.800,A,3802.1506,N,08430.4124,W,0.24,167.59,220914,,,A*71
$GPGGA,230446.000,3802.1506,N,08430.4123,W,1,4,2.86,297.8,M,-33.0,M,,*68
$GPRMC,230446.000,A,3802.1506,N,08430.4123,W,0.25,167.59,220914,,,A*7C
$GPGGA,230446.200,3802.1506,N,08430.4123,W,1,4,2.86,297.8,M,-33.0,M,,*6A
$GPRMC,230446.200,A,3802.1506,N,08430.4123,W,0.25,167.59,220914,,,A*7E
$GPGGA,230446.400,3802.1506,N,08430.4123,W,1,4,2.86,297.8,M,-33.0,M,,*6C
$GPRMC,230446.400,A,3802.1506,N,08430.4123,W,0.27,167.59,220914,,,A*7A
$GPGGA,230446.600,3802.1506,N,08430.4123,W,1,4,2.86,297.8,M,-33.0,M,,*6E
$GPRMC,230446.600,A,3802.1506,N,08430.4123,W,0.27,167.59,220914,,,A*78
$GPGGA,230446.800,3802.1506,N,08430.4123,W,1,4,2.86,297.8,M,-33.0,M,,*60
$GPRMC,230446.800,A,3802.1506,N,08430.4123,W,0.26,167.59,220914,,,A*77
$GPGGA,230447.000,3802.1506,N,08430.4123,W,1,4,2.86,297.8,M,-33.0,M,,*69
$GPRMC,230447.000,A,3802.1506,N,08430.4123,W,0.25,167.59,220914,,,A*7D
$GPGGA,230447.200,3802.1505,N,08430.4123,W,1,4,2.86,297.8,M,-33.0,M,,*68
$GPRMC,230447.200,A,3802.1505,N,08430.4123,W,0.25,167.59,220914,,,A*7C
$GPGGA,230447.400,3802.1505,N,08430.4123,W,1,4,2.86,297.8,M,-33.0,M,,*6E
$GPRMC,230447.400,A,3802.1505,N,08430.4123,W,0.24,167.59,220914,,,A*7B
$GPGGA,230447.600,3802.1505,N,08430.4123,W,1,4,2.86,297.8,M,-33.0,M,,*6C
$GPRMC,230447.600,A,3802.1505,N,08430.4123,W,0.24,167.59,220914,,,A*79
$GPGGA,230447.800,3802.1505,N,08430.4122,W,1,4,2.86,297.8,M,-33.0,M,,*63
$GPRMC,230447.800,A,3802.1505,N,08430.4122,W,0.23,167.59,220914,,,A*71
$GPGGA,230448.000,3802.1505,N,08430.4122,W,1,4,2.86,297.8,M,-33.0,M,,*64
$GPRMC,230448.000,A,3802.1505,N,08430.4122,W,0.22,167.59,220914,,,A*77
$GPGGA,230448.200,3802.1505,N,08430.4122,W,1,4,2.86,297.8,M,-33.0,M,,*66
$GPRMC,230448.200,A,3802.1505,N,08430.4122,W,0.21,167.59,220914,,,A*76
$GPGGA,230448.400,3802.1505,N,08430.4122,W,1,4,2.86,297.8,M,-33.0,M,,*60
$GPRMC,230448.400,A,3802.1505,N,08430.4122,W,0.15,167.59,220914,,,A*77
$GPGGA,230448.600,3802.1505,N,08430.4122,W,1,4,2.86,297.8,M,-33.0,M,,*62
$GPRMC,230448.600,A,3802.1505,N,08430.4122,W,0.10,167.59,220914,,,A*70
$GPGGA,230448.800,3802.1505,N,08430.4122,W,1,4,2.86,297.8,M,-33.0,M,,*6C
$GPRMC,230448.800,A,3802.1505,N,08430.4122,W,0.08,167.59,220914,,,A*77
$GPGGA,230449.000,3802.1505,N,08430.4122,W,1,4,2.86,297.8,M,-33.0,M,,*65
$GPRMC,230449.000,A,3802.1505,N,08430.4122,W,0.06,167.59,220914,,,A*70
$GPGGA,230449.200,3802.1505,N,08430.4122,W,1,4,2.86,297.8,M,-33.0,M,,*67
$GPRMC,230449.200,A,3802.1505,N,08430.4122,W,0.05,167.59,220914,,,A*71
$GPGGA,230449.400,3802.1505,N,08430.4122,W,1,4,2.86,297.8,M,-33.0,M,,*61
$GPRMC,230449.400,A,3802.1505,N,08430.4122,W,0.04,167.59,220914,,,A*76
$GPGGA,230449.600,3802.1505,N,08430.4122,W,1,4,2.86,297.8,M,-33.0,M,,*63
$GPRMC,230449.600,A,3802.1505,N,08430.4122,W,0.05,167.59,220914,,,A*75
$GPGGA,230449.800,3802.1505,N,08430.4122,W,1,4,2.86,297.8,M,-33.0,M,,*6D
$GPRMC,230449.800,A,3802.1505,N,08430.4122,W,0.06,167.59,220914,,,A*78
$GPGGA,230450.000,3802.1505,N,08430.4122,W,1,4,2.86,297.8,M,-33.0,M,,*6D
$GPRMC,230450.000,A,3802.1505,N,08430.4122,W,0.07,167.59,220914,,,A*79
$GPGGA,230450.200,3802.1505,N,08430.4122,W,1,4,2.86,297.8,M,-33.0,M,,*6F
$GPRMC,230450.200,A,3802.1505,N,08430.4122,W,0.09,167.59,220914,,,A*75
$GPGGA,230450.400,3802.1505,N,08430.4122,W,1,4,2.86,297.8,M,-33.0,M,,*69
$GPRMC,230450.400,A,3802.1505,N,08430.4122,W,0.11,167.59,220914,,,A*7A
$GPGGA,230450.600,3802.1504,N,08430.4122,W,1,4,2.86,297.8,M,-33.0,M,,*6A
$GPRMC,230450.600,A,3802.1504,N,08430.4122,W,0.12,167.59,220914,,,A*7A
$GPGGA,230450.800,3802.1504,N,08430.4122,W,1,4,2.86,297.8,M,-33.0,M,,*64
$GPRMC,230450.800,A,3802.1504,N,08430.4122,W,0.12,167.59,220914,,,A*74
$GPGGA,230451.000,3802.1504,N,08430.4122,W,1,4,2.86,297.8,M,-33.0,M,,*6D
$GPRMC,230451.000,A,3802.1504,N,08430.4122,W,0.12,167.59,220914,,,A*7D
